name,latitude,longitude,inhabitedSince,inhabitedUntil,wikipedia,access,addr.city,alt_name,alt_name.ar,alt_name.cs,alt_name.el,alt_name.en,alt_name.he,civilizations,denomination,desc,description,description.de,description.en,description.he,description.hu,designation,ele,heritage,historic.civilization,historic.era,historic.period,image,image1,image2,image3,image4,image5,image6,image_1,image_2,inscription,int_name,is_in,layer,link,man_made,mapillary,name.ar,name.ar1,name.be,name.bg,name.bn,name.br,name.ca,name.ckb,name.cs,name.de,name.el,name.en,name.en1,name.en2,name.en3,name.en4,name.en5,name.en6,name.eo,name.es,name.fi,name.fr,name.gu,name.he,name.he1,name.he2,name.he3,name.hi,name.hu,name.hy,name.id,name.it,name.ja,name.ka,name.kn,name.ko,name.ku,name.la,name.lt,name.ml,name.mn,name.mr,name.nl,name.no,name.pa,name.pl,name.pt,name.ro,name.ru,name.sl,name.sr,name.tr,name.uk,name.vi,name.zh,name_local,natural,old_name,old_name.fr,place,ref.whc,reference,religion,short_name.cs,site_type,start_date,url,website,website1,whc.criteria,whc.inscription_date,wiki.en,wikidata,wikipedia.en,wpt_description
Aperlae,36.159605,29.7821787,,,tr:Aperlae,,,Aperlai,,,,,,,,,,,,,,,,,,,,,,,,,,,,,,,,,,,,,,,,,,,,,,Ἄπερλαι,,,,,,,,,,,,,,,,,,,,,,,,,,,,,,,,,,,,,,,,,,,,,,,,,,,,,,,,,,,,,,Q618234,,
Tomb of the Kings,34.7748687,32.4057762,,,en:Tombs of the Kings (Paphos),,,,,,,,,,,,,,,,,,,,,,,,,,,,,,,,,,Paphos,,,,,,,,,,,,,,Paphos - Tomb of the Kings - Königsgräber von Nea Paphos,,,,,,,,,,,,,,,,,,,,,,,,,,,,,,,,,,,,,,,Царские гробницы,,,,,,,,,,,,,,,,,,,,,,,,Q1796353,,
Sobesos,38.464093,34.9660147,,,,,,,,,,,,,,,,,,,,,,,,,,,,,,,,,,,,,,,,,,,,,,,,,,,,,,,,,,,,,,,,,,,,,,,,,,,,,,,,,,,,,,,,,,,,,,,,,,,,,,,,,,,,,,,,,,,,
Archaeological Park,34.756892,32.4065968,,,,,,,,,,,,,,,,,,,,,,,,,,,,,,,,,,,,,Paphos,,,,,,,,,,,,,,,,,,,,,,,,,,,,,,,,,,,,,,,,,,,,,,,,,,,,,,,,,,,,,,,,,,,,,,,,,,,,,,,
תל שחרית,32.65,35.55,,,,,,,,,,,,,,,,,,,,,,,,,,,,,,,,,,,,,,,,,,,,,,,,,,,,,Tel Shaharit,,,,,,,,,,,,תל שחרית,,,,,,,,,,,,,,,,,,,,,,,,,,,,,,,,,,,,,,,,,,,,,,,,,,,
תל חציר,32.7219428,35.2033327,,,,,,,,,,,,,,,,,,,,,,,,,,,,,,,,,,,,,,,,,,تل حصير,,,,,,,,,,,Tel Hazir,,,,,,,,,,,,תל חציר,,,,,,,,,,,,,,,,,,,,,,,,,,,,,,,,,,,,,,,,,,,,,,,,,,,
תל זית,31.6300842,34.8306502,,,,,,,,,,,,,,,,,,,,,,,,,,,,,,,,,,,,,,,,,,,,,,,,,,,,,Tel Zayit,,,,,,,,,,Tel Zayit,,תל זית,,,,,,,,,,,,,,,,,,,,,,,,,,,,,,,,,,,,,,,,,,,,,,,,,Q938712,,
תל קשיש,32.6851803,35.1096171,,,he:תל קשיש,,,,,,,,,,,,"תל קשיש, לידו מחלף תל קשיש הנקרא על שמו. ההגדה מספרת שעל התל הזה הרג אליהו הנביא את 40 נביאי הבעל ודמם נשטף אל מי הקישון אשר למרגלותיו, מפסגת הכרמל משקיף על התל מנזר המוחרקה, משם עלה אליהו הנביא השמיימה במרכבות סוסי אש.",,,"תל קשיש, לידו מחלף תל קשיש הנקרא על שמו. ההגדה מספרת שעל התל הזה הרג אליהו הנביא את 40 נביאי הבעל ודמם נשטף אל מי הקישון אשר למרגלותיו, מפסגת הכרמל משקיף על התל מנזר המוחרקה, משם עלה אליהו הנביא השמיימה במרכבות סוסי אש.",,,,,,,,https://upload.wikimedia.org/wikipedia/commons/c/cd/IHM_תל_קשיש_4.jpeg,https://upload.wikimedia.org/wikipedia/commons/e/e5/IHM_תל_קשיש.jpeg,,https://upload.wikimedia.org/wikipedia/commons/c/c0/IHM_תל_קשיש_5.jpeg,,,,,,,,,,,,,,,,,,,,,,,,Tel Qashish,,,,,,,,,,Tell Kashish,,תל קשיש,,,,,,,,,,,,,,,,,,,,,,,,,,,,,,,,,,,,,,,,,,,,,,,,,Q4220548,,
תל זהבך,32.4857331,35.461633,,,,,,,,,,,,,,,,,,,,,,,,,,,,,,,,,,,,,,,,,,,,,,,,,,,,,Tel Zehavi,,,,,,,,,,,,תל זהבך,,,,,,,,,,,,,,,,,,,,,,,,,,,,,,,,,,,,,,,,,,,,,,,,,,,
תל שוקק,32.4965788,35.4620771,,,,,,,,,,,,,,,,,,,,,,,,,,,,,,,,,,,,,,,,,,,,,,,,,,,,,Tel Shoqeq,,,,,,,,,,,,תל שוקק,,,,,,,,,,,,,,,,,,,,,,,,,,,,,,,,,,,,,,,,,,,,,,,,,,,
תל קדש,33.1101085,35.5309562,,,en:Kedesh,,,,,,,,,,,,,,,,,,,,,,,,,,,,,,,,,,,,,,,,,,,,,,,,,,Tel Kedesh,Qadas,Qedesh Naftali,,,,,,,,Tel Qadesh,,תל קדש,,,,,,,,,,,,,,,,,,,,,,,,,,,,,,,,,,,,,,,,,,,,,,,,,Q2585161,,
תל ראש,33.0333141,35.3333561,,,,,,,,,,,,,,,,,,,,,,,,,,,,,,,,,,,,,,,,,,تل رأس,تل راش,,,,,,,,,,Tel Rosh,,,,,,,,,,,,תל ראש,,,,,,,,,,,,,,,,,,,,,,,,,,,,,,,,,,,,,,,,,,,,,,,,,,,
תל ישוע,31.2740404,34.98755,,,,,,,,,,,,,,,,,,,,,,,,,,,,,,,,,,,,,,,,,,,,,,,,,,,,,Tel Yeshua,Tell Sawa,,,,,,,,,,,תל ישוע,,,,,,,,,,,,,,,,,,,,,,,,,,,,,,,,,,,,,,,,,,,,,,,,,,,
Sharayi`,32.5,35.133333,,,,,,,,,,,,,,,,,,,,,,,,,,,,,,,,,,,,,,,,,,,,,,,,,,,,,Sharayi`,Qasr Sharayi',Sharai,,,,,,,,,,,,,,,,,,,,,,,,,,,,,,,,,,,,,,,,,,,,,,,,,,,,,,,,,,,,,
חורבת רבוא,31.6575865,34.9791273,,,,,,,,,,,,,,,,,,,,,420,,,,,,,,,,,,,,,,,,,,,,,,,,,,,,,,Horbat Ribbo,,,,,,,,,,,,חורבת רבוא,,,,,,,,,,,,,,,,,,,,,,,,,,,,,,,,,peak,,,,,,,,,,,,,,,,,,
תל רכש,32.6530514,35.4663322,,,,,,,,,,,,,,,,,,,,,,,,,,,,,,,,,,,,,,,,,,,,,,,,,,,,,Tel Rekhesh,,,,,,,,,,,,תל רכש,,,,,,,,,,,,,,,,,,,,,,,,,,,,,,,,,,,,,,,,,,,,,,,,,,,
הר ערקוב,30.7890453,34.734436,,,,,,,,,,,,,,,"הר עם הרבה ציורי סלע, מאובנים ותצפית יפה שחושפת סימנים לנבטים שאכלסו את האזור. לפי חוקרים ציורי הסלע היו חלק מטקסי פולחן של הנבטים.",,,"הר עם הרבה ציורי סלע, מאובנים ותצפית יפה שחושפת סימנים לנבטים שאכלסו את האזור. לפי חוקרים ציורי הסלע היו חלק מטקסי פולחן של הנבטים.",,,663,,,,,https://upload.wikimedia.org/wikipedia/commons/3/36/Israel_Hiking_Map_%D7%94%D7%A8_%D7%A2%D7%A8%D7%A7%D7%95%D7%91.jpeg,,,,,,,,,,,,,,,,,,,,,,,,,,,Mt. `Arqov,Jebel Irqab Isdud,,,,,,,,,,,הר ערקוב,,,,,,,,,,,,,,,,,,,,,,,,,,,,,,,,,,,,,,,,,,,,,,,,,,,
תל רחוב,32.4583321,35.4972229,,,he:תל רחוב,,,,,,,,,,,,תל גבוה ותצפית יפה (על שדה החמניות בעונה). עליות מעניינות לג'יפים.,,,תל גבוה ותצפית יפה (על שדה החמניות בעונה). עליות מעניינות לג'יפים.,,,,,,,,https://upload.wikimedia.org/wikipedia/commons/4/4a/Israel_Hiking_Map_%D7%AA%D7%9C_%D7%A8%D7%97%D7%95%D7%91_1.jpeg,https://upload.wikimedia.org/wikipedia/commons/b/bc/Israel_Hiking_Map_%D7%AA%D7%9C_%D7%A8%D7%97%D7%95%D7%91.jpeg,,,,,,,,,,,,,,,,,,,,,,,,,,Tel Rehov,,,,,,,,,,Tel Rehov,,תל רחוב,,,,,,,,,,,,,,,,,,,,,,,,,,,,,,,,,,,,,,,,,,,,,,,,,Q2920011,,
תל ערד,31.2799119,35.1255017,,,en:Tel Arad,,,,,,,,,,,,,,,,,,,,,,,,,,,,,,,,,,,,,,,,,,,,,,,,,,Tel Arad,Arad,Arod,Tall Arud,Tell Urad,,,,,,Tel Arad,,תל ערד,,,,,,,,,,,,,,,,,,,,,,,,,,,,,,,,,,,,,,,,,,,,,,,,,Q2063578,,
Tel Malluah,32.433333,35.55,,,,,,,,,,,,,,,,,,,,,,,,,,,,,,,,,,,,,,,,,,,,,,,,,,,,,Tel Malluah,,,,,,,,,,,,תל מלוח,,,,,,,,,,,,,,,,,,,,,,,,,,,,,,,,,,,,,,,,,,,,,,,,,Q31354640,,
תל בטש,31.785337,34.9115833,,,,,,,,,,,,,,,,,,,,,,,,,,,,,,,,,,,,,,,,,,,,,,,,,,,,,Tel Batash,,,,,,,,,,Timna,,תל בטש,,,,,,,,,,,,,,,,,,,,,,,,,,,,,,,,,,,,,,,,,,,,,,,,,Q2916736,,
תל גת חפר,32.738889,35.320833,,,,,,,,,,,,,,,,,,,,,,,,,,,,,,,,,,,,,,,,,,تل غت حفر,,,,,,,,,,,Tel Gat Hefer,,,,,,,,,,,,תל גת חפר,,,,,,,,,,,,,,,,,,,,,,,,,,,,,,,,,,,,,,,,,,,,,,,,,,,
Tel Hodim,32.8620855,35.53568,,,,,,,,,,,,,,,,,,,,,,,,,,,,,,,,,,,,,,,,,,,,,,,,,,,,,Tel Hodim,,,,,,,,,,,,תל הודים,,,,,,,,,,,,,,,,,,,,,,,,,,,,,,,,,,,,,,,,,,,,,,,,,,,
תל ינעם,32.716667,35.516667,,,,,,,,,,,,,,,,,,,,,,,,,,,,,,,,,,,,,,,,,,,,,,,,,,,,,Tel Yin`am,,,,,,,,,,,,תל ינעם,,,,,,,,,,,,,,,,,,,,,,,,,,,,,,,,,,,,,,,,,,,,,,,,,,,
תל גובל,32.7277834,35.3850841,,,,,,,,,,,,,,,,,,,,,,,,,,,,,,,,,,,,,,,,,,,,,,,,,,,,,Tel Govel,,,,,,,,,,,,תל גובל,,,,,,,,,,,,,,,,,,,,,,,,,,,,,,,,,,,,,,,,,,,,,,,,,,,
תל פורן,31.7079458,34.6120965,,,,,,,,,,,,,,,,,,,,,,,,,,,,,,,,,,,,,,,,,,,,,,,,,,,,,Tel Poran,,,,,,,,,,,,תל פורן,,,,,,,,,,,,,,,,,,,,,,,,,,,,,,,,,,,,,,,,,,,,,,,,,,,
תל בית שאן,32.5043698,35.5033129,,,,,,,,,,,,,,,,,,,,,,,,,,https://upload.wikimedia.org/wikipedia/commons/2/26/IHM_תל_בית_שאן.jpeg,,,,,,,,,,,,,,,,,,,,,,,,Tel Bejt Še'an,,,Tel Beit Shean,,,,,,,,,,Tel Beït-Shéan,,תל בית שאן,,,,,,,,,,,,,,,,,,,,,,,,,,,,,,,,,,,,,,,,,,,,,,,,,Q3517238,,
תל גדור,32.4289786,34.8752087,,,,,,Tell as-Sheikh Ziraq,,,,,,,,,התל מתנשא 33 מ' מעל פני הים ומראשו יש תצפית נפלאה על החוף ועל מרחבי השרון.,,,התל מתנשא 33 מ' מעל פני הים ומראשו יש תצפית נפלאה על החוף ועל מרחבי השרון.,,,,,,,,https://upload.wikimedia.org/wikipedia/commons/8/86/IHM_תל_גדור.jpeg,,,,,,,,,,,,,,,,,,,,,,,,,,,Tel Gador,,,,,,,,,,,,תל גדור,,,,,,,,,,,,,,,,,,,,,,,,,,,,,,,,,,,,,,,,,,,,https://www.parks.org.il/reserve-park/%D7%92%D7%9F-%D7%9C%D7%90%D7%95%D7%9E%D7%99-%D7%95%D7%A9%D7%9E%D7%95%D7%A8%D7%AA-%D7%98%D7%91%D7%A2-%D7%97%D7%95%D7%A3-%D7%92%D7%93%D7%95%D7%A8/,,,,,,,
תל עתר,31.6159361,34.8785694,,,,,,,,,,,,,,,,,,,,,,,,,,,,,,,,,,,,,,,,,,,,,,,,,,,,,Tel `Eter,,,,,,,,,,,,תל עתר,,,,,,,,,,,,,,,,,,,,,,,,,,,,,,,,,,,,,,,,,,,,,,,,,,,
תל יונה,31.996126,34.7325459,,,,,,,,,,,,,,,,,,,,,,,,,,,,,,,,,,,,,,,,,,,,,,,,,,,,,Tel Yona,Tell Yunis,,,,,,,,,,,תל יונה,,,,,,,,,,,,,,,,,,,,,,,,,,,,,,,,,,,,,,,,,,,,,,,,,,,
תל עדולם,31.6506233,35.0020332,,,he:עדולם,,,,,,,,,,,,"חורבות, מערות, באר מים ונוף יפה צפונה אל עמק האלה",,,"חורבות, מערות, באר מים ונוף יפה צפונה אל עמק האלה",,,439,,,,,,,,,,,,,,,,,,,,,,,,,,,,,,,,Tel Adullam,Khirbat Id al Minya,Khirbat Jubeil Naqqar,Miya,,,,,,,,,תל עדולם,,חורבת עדולם,,,,,,,,,,,,,,,,,,,,,,,,,,,,,,,peak,,,,,,,,,,,,,,,,,,
תל אסור,32.482077,35.0194158,,,,,,,,,,,,,,,,,,,,,,,,,,,,,,,,,,,,,,,,,,,,,,,,,,,,,Tel Esur,Tall al Asawir,Tel Arubot,,,,,,,,Tel Assor,,תל אסור,,,,,,,,,,,,,,,,,,,,,,,,,,,,,,,,,,,,,,,,,,,,,,,,,Q6989380,,
Tel Mifsah,31.4678691,34.648914,,,,,,,,,,,,,,,,,,,,,,,,,,,,,,,,,,,,,,,,,,,,,,,,,,,,,Tel Mifsah,,,,,,,,,,,,תל מפסח,,,,,,,,,,,,,,,,,,,,,,,,,,,,,,,,,,,,,,,,,,,,,,,,,,,
תל ישמעאל,32.55,35.566667,,,,,,,,,,,,,,,,,,,,,,,,,,,,,,,,,,,,,,,,,,,,,,,,,,,,,Tel Yishma`el,,,,,,,,,,,,תל ישמעאל,,,,,,,,,,,,,,,,,,,,,,,,,,,,,,,,,,,,,,,,,,,,,,,,,,,
חורבת עקודים,33.044796,35.2133293,,,,,,,,,,,,,,,חורבה גלילית טיפוסית עם מאגר מים יפה,,,חורבה גלילית טיפוסית עם מאגר מים יפה,,,,,,,,,,,,,,,,,,,,,,,,,,,,,,,,,,,Horbat Akudim,Khirbat al Quda,,,,,,,,,,,חורבת עקודים,,,,,,,,,,,,,,,,,,,,,,,,,,,,,,,,,,,,,,,,,,,,,,,,,,,
תל כיסון,32.8730545,35.1505547,,,he:תל כיסון,,,,,,,,,,,,תל כיסן,,,תל כיסן,,,,,,,,https://upload.wikimedia.org/wikipedia/commons/b/be/Israel_Hiking_Map_%D7%AA%D7%9C_%D7%9B%D7%99%D7%A1%D7%9F.jpeg,,,,,,,,,,,,,,,,تل كيسون,,,,,,,,,,,Tel Kison,,,,,,,,,,Tel Kison,,תל כיסון,,,,,,,,,,,,,,,,,,,,,,,,,,,,,,,,,,,,,,,,,,,,,,,,,Q55634890,,
Tel Zippor,31.65,34.733333,,,,,,,,,,,,,,,,,,,,,,,,,,,,,,,,,,,,,,,,,,,,,,,,,,,,,Tel Zippor,,,,,,,,,,,,תל ציפור,,,,,,,,,,,,,,,,,,,,,,,,,,,,,,,,,,,,,,,,,,,,,,,,,,,
תל מחוז,31.9196636,34.7433949,,,,,,,,,,,,,,,,,,,,,,,,,,,,,,,,,,,,,,,,,,,,,,,,,,,,,Tel Mahoz,,,,,,,,,,,,תל מחוז,,,,,,,,,,,,,,,,,,,,,,,,,,,,,,,,,,,,,,,,,,,,,,,,,,,
תל רעלה,32.6831902,35.1739929,,,,,,,,,,,,,,,,,,,,,,,,,,,,,,,,,,,,,,,,,,,,,,,,,,,,,Tel Re`ala,,,,,,,,,,,,תל רעלה,,,,,,,,,,,,,,,,,,,,,,,,,,,,,,,,,,,,,,,,,,,,,,,,,,,
בית שערים,32.7037666,35.1292388,,,he:בית שערים,,,,,,,,,,,,,,,,,,,,,,,,,,,,,,,,,,,,,,,,,,,,,,,,,,Beit She`arim,Beit She`arim,,,,,,,,,Beït-Shéarim,,בית שערים,,,,,,,,,,,,,,,,,,,,,,,,,,,,,,,,,,,,,,,,,,,,,,,,,Q830805,,
Tel Haraz,31.871389,34.677222,,,,,,,,,,,,,,,,,,,,,,,,,,,,,,,,,,,,,,,,,,,,,,,,,,,,,Tel Haraz,Tel Abu Haraza,Tell Abu Haraze,,,,,,,,,,תל חרז,,,,,,,,,,,,,,,,,,,,,,,,,,,,,,,,,,,,,,,,,,,,,,,,,,,
מצד חתרורים,31.2231441,35.3055188,,,,,,,,,,,,,,,,,,,,,,,,,,https://upload.wikimedia.org/wikipedia/commons/a/a6/Israel_Hiking_Map_מצד_חתרורים.jpeg,https://upload.wikimedia.org/wikipedia/commons/5/5a/Israel_Hiking_Map_מצד_חתרורים_1.jpeg,,,,,,,,,,,,,,,,,,,,,,,,,,Mezad Hatrurim,Metsad Hatrurim,Qasr el Juheiniya,Qasr el Juheiniye,,,,,,,,,מצד חתרורים,,,,,,,,,,,,,,,,,,,,,,,,,,,,,,,,,,,,,,,,,,,,,,,,,,,
תל תאומים,32.4443985,35.494237,,,,,,,,,,,,,,,,,,,,,,,,,,,,,,,,,,,,,,,,,,,,,,,,,,,,,Tel Te'omim,,,,,,,,,,,,תל תאומים,,,,,,,,,,,,,,,,,,,,,,,,,,,,,,,,,,,,,,,,,,,,,,,,,,,
Tel Shihan,31.45,34.533333,,,,,,,,,,,,,,,,,,,,,,,,,,,,,,,,,,,,,,,,,,,,,,,,,,,,,Tel Shihan,,,,,,,,,,,,תל שיחן,,,,,,,,,,,,,,,,,,,,,,,,,,,,,,,,,,,,,,,,,,,,,,,,,,,
תל כלך,31.4770728,34.8284888,,,,,,,,,,,,,,,,,,,,,287,,,,,,,,,,,,,,,,,,,,,,,,,,,,,,,,Tel Kelekh,Tall Umm Kalkha,,,,,,,,,,,תל כלך,,,,,,,,,,,,,,,,,,,,,,,,,,,,,,,,,,,,,,,,,,,,,,,,,,,
תל עין חדה,32.6843862,35.4905046,,,,,,,,,,,,,,,,,,,,,,,,,,,,,,,,,,,,,,,,,,,,,,,,,,,,,Tel Ein Hadda,,,,,,,,,,,,תל עין חדה,,,,,,,,,,,,,,,,,,,,,,,,,,,,,,,,,,,,,,,,,,,,,,,,,,,
Tel Ya`oz,31.947222,34.724722,,,,,,,,,,,,,,,,,,,,,,,,,,,,,,,,,,,,,,,,,,,,,,,,,,,,,Tel Ya`oz,,,,,,,,,,,,תל יעוז,,,,,,,,,,,,,,,,,,,,,,,,,,,,,,,,,,,,,,,,,,,,,,,,,,,
תל צורן,32.3039276,34.9251482,,,,,,,,,,,,,,,,,,,,,,,,,,,,,,,,,,,,,,,,,,,,,,,,,,,,,Tel Zoran,,,,,,,,,,,,תל צורן,,,,,,,,,,,,,,,,,,,,,,,,,,,,,,,,,,,,,,,,,,,,,,,,,,,
Tel Sheqafim,32.416667,35.516667,,,,,,,,,,,,,,,,,,,,,,,,,,,,,,,,,,,,,,,,,,,,,,,,,,,,,Tel Sheqafim,,,,,,,,,,,,תל שקפים,,,,,,,,,,,,,,,,,,,,,,,,,,,,,,,,,,,,,,,,,,,,,,,,,,,
תל דעוך,32.8711357,35.1224094,,,he:תל דעוך,,,,,,,,,,,,,,,,,,,,,,,,,,,,,,,,,,,,,,,,,,,,,,,,,,Tel Da`ok,Tel Da`okh,,,,,,,,,,,תל דעוך,,,,,,,,,,,,,,,,,,,,,,,,,,,,,,,,,,,,,,,,,,,,,,,,,,,
תל שוקת,31.3094686,34.9099533,,,,,,,,,,,,,,,,,,,,,,,,,,,,,,,,,,,,,,,,,,تل شوكت,,,,,,,,,,,Tel Shoqet,,,,,,,,,,,,תל שוקת,,,,,,,,,,,,,,,,,,,,,,,,,,,,,,,,,,,,,,,,,,,,,,,,,,,
תל מרוה,33.0180269,35.2399384,,,,,,,,,,,,,,,,,,,,,497,,,,,,,,,,,,,,,,,,,,,,,,,,,,,,,,Tel Marwa,Tall Marda,Tall Marida,Tell Marva,,,,,,,Tel Marwa,,תל מרוה,,,,,,,,,,,,,,,,,,,,,,,,,,,,,,,,,peak,,,,,,,,,,,,,,,,Q26763556,,
תל שער,33.0730476,35.331839,,,,,,,,,,,,,,,,,,,,,,,,,,,,,,,,,,,,,,,,,,,,,,,,,,,,,Tel Sha`ar,Tall Abu Babein,,,,,,,,,,,תל שער,,,,,,,,,,,,,,,,,,,,,,,,,,,,,,,,,,,,,,,,,,,,,,,,,,,
Tel Lachish,31.5655212,34.8491898,,,en:Tel Lachish,,,,,,,,,,,,"תל לכיש הוא תל חשוב בשפלת יהודה, גובל בנחל לכיש.",,,"תל לכיש הוא תל חשוב בשפלת יהודה, גובל בנחל לכיש.",,,,,,,,https://upload.wikimedia.org/wikipedia/commons/3/37/Israel_Hiking_Map_תל_לכיש.jpeg,https://upload.wikimedia.org/wikipedia/commons/0/08/Israel_Hiking_Map_תל_לכיש_1.jpeg,,,,,,,,,,,,,,,,,,,,,,,,,,Tel Lakhish,Duwayr,Lachish,Lakhish,Lakish,Tall ad Duweir,Tel Lachish,,,,Lakish,,תל לכיש,,,,,,,,,,,,,,,,,,,,,,,,,,,,,,,,תל לכיש,,,,,,,,,,,,,,,,,Q848509,,
תל א-שמאם,32.666667,35.15,,,,,,,,,,,,,,,,,,,,,,,,,,,,,,,,,,,,,,,,,,,,,,,,,,,,,Tel Shem,Tell esh Shammam,Tall ash Shamman,Tell esh Shemmam,,,,,,,,,תל א-שמאם,,,,,,,,,,,,,,,,,,,,,,,,,,,,,,,,,,,,,,,,,,,,,,,,,,,
חורבת קרומית,31.641487,34.9797393,,,,,,,,,,,,,,,"שרידי מבנים, בורות מים, מיתקנים חצובים, מקוואות, מערות קבורה, חציבות ומערכת מסתור.",,,"שרידי מבנים, בורות מים, מיתקנים חצובים, מקוואות, מערות קבורה, חציבות ומערכת מסתור.",,,434,,,,,https://upload.wikimedia.org/wikipedia/commons/8/83/IHM_חורבת_קרומית.jpeg,,,,,,,,,,,,,,,,,,,,,,,,,,,Horbat Qerumit,,,,,,,,,,,,חורבת קרומית,,,,,,,,,,,,,,,,,,,,,,,,,,,,,,,,,peak,,,,,,,,,,,http://www.hadashot-esi.org.il/report_detail.aspx?id=40&mag_id=108,,,,,,,
תל נופר,32.447222,35.491667,,,,,,,,,,,,,,,,,,,,,,,,,,,,,,,,,,,,,,,,,,,,,,,,,,,,,Tel Nufar,,,,,,,,,,,,תל נופר,,,,,,,,,,,,,,,,,,,,,,,,,,,,,,,,,,,,,,,,,,,,,,,,,,,
תל קידה,33.0218945,35.2443988,,,,,,,,,,,,,,,,,,,,,507,,,,,,,,,,,,,,,,,,,,,,,,,,,,,,,,Tel Qidda,Tall al Mashnaqa,,,,,,,,,Tel Kida,,תל קידה,,,,,,,,,,,,,,,,,,,,,,,,,,,,,,,,,peak,,,,,,,,,,,,,,,,Q26762866,,
تل ملقوح,32.404167,35.483333,,,,,,,,,,,,,,,,,,,,,,,,,,,,,,,,,,,,,,,,,,تل ملقوح,,,,,,,,,,,Tel Malqoah,Tall Maqhuz,,,,,,,,,,,תל מלקוח,,,,,,,,,,,,,,,,,,,,,,,,,,,,,,,,,,,,,,,,,,,,,,,,,,,
אפולוניה,32.19521,34.8066381,,,he:אפולוניה,,,,,Apolonijský národní park,,,,,,,"אַפּוֹלוֹנְיָה-אַרְסוּף (גם תֵּל אַרְשָׁף) היא עיר עתיקה ששרידיה נמצאים היום בשרון הדרומי, ממערב לשכונת נוף ים בהרצליה, בקרבת סידנא עלי של ימינו. המקום הוכשר לביקורי מטיילים והוקם במקום גן לאומי.",,,"אַפּוֹלוֹנְיָה-אַרְסוּף (גם תֵּל אַרְשָׁף) היא עיר עתיקה ששרידיה נמצאים היום בשרון הדרומי, ממערב לשכונת נוף ים בהרצליה, בקרבת סידנא עלי של ימינו. המקום הוכשר לביקורי מטיילים והוקם במקום גן לאומי.",,,,,phoenician,,,,,,,,,,,,,,,,,,,أرسوف,,,,,Arsuf,Arsuf,,Arsuf,Arsuf,Απολλωνία,Tel Arshaf,Apollonia,Appolonia,Arsuf,Arsum,Rishpon,,,Arsuf,,Apollonie,,אפולוניה,,,,,,,,Arsuf,,,,,,,,,,,,,,,Apolónia da Palestina,,Арсуф,,Арсуф,,Арзуф,,,,,,,,,,,Apollonia,city,~C6 BC,,,,,,,Q1024886,Apollonia-Arsuf,
תל אגרא,31.5015199,34.8732588,,,,,,,,,,,,,,,,,,,,,,,,,,,,,,,,,,,,,,,,,,,,,,,,,,,,,Tel Agra,,,,,,,,,,,,תל אגרא,,,,,,,,,,,,,,,,,,,,,,,,,,,,,,,,,,,,,,,,,,,,,,,,,,,
תל חווארה,32.766667,35.65,,,,,,,,,,,,,,,,,,,,,,,,,,,,,,,,,,,,,,,,,,,,,,,,,,,,,Tel Chawara,Tall al Kawa'ir,Tell el Kawayir,,,,,,,,,,תל חווארה,,,,,,,,,,,,,,,,,,,,,,,,,,,,,,,,,,,,,,,,,,,,,,,,,,,
תל נחל,32.7999993,35.0666714,,,,,,,,,,,,,,,,,,,,,,,,,,,,,,,,,,,,,,,,,,,,,,,,,,,,,Tel Nahal,Tell el Nahl,,,,,,,,,,,תל נחל,,,,,,,,,,,,,,,,,,,,,,,,,,,,,,,,,,,,,,,,,,,,,,,,,,,
תל ברור,31.5662496,34.6316793,,,,,,,,,,,,,,,,,,,,,,,,,,,,,,,,,,,,,,,,,,,,,,,,,,,,,Tel Beror,,,,,,,,,,,,תל ברור,,,,,,,,,,,,,,,,,,,,,,,,,,,,,,,,,,,,,,,,,,,,,,,,,,,
תל זיתון,32.0995587,34.8370119,,,,,,,,,,,,,,,,,,,,,,,,,,,,,,,,,,,,,,,,,,,,,,,,,,,,,Tel Zeton,,,,,,,,,,Tel Zeton,,תל זיתון,,,,,,,,,,,,,,,,,,,,,,,,,,,,,,,,,,,,,,,,,,,,,,,,,Q61125424,,
Tel Par,32.770833,35.104444,,,he:תל פר,,,,,,,,,,,,,,,,,,,,,,,,,,,,,,,,,,,,,,,,,,,,,,,,,,Tel Par,,,,,,,,,,,,נחל פרצים,,,,,,,,,,,,,,,,,,,,,,,,,,,,,,,,,,,,,,,,,,,,,,,,,,,
תל יזרעאל,32.5576387,35.3282848,,,,,,,,,,,,,,,,,,,,,,,,,,,,,,,,,,,,,,,,,,,,,,,,,,,,,Tel Yizre'el,,,,,,,,,,,,תל יזרעאל,,,,,,,,,,,,,,,,,,,,,,,,,,,,,,,,,,,,,,,,,,,,,,,,,,,
Sarafand,32.6458319,34.9354618,,,,,,,,,,,,,,,,,,,,,,,,,,,,,,,,,,,,,,,,,,,,,,,,,,,,,Sarafand,As Sarafand,Surafend,Tsarafand,Sarepta Yudee,,,,,,,,צרפנד,,,,,,,,,,,,,,,,,,,,,,,,,,,,,,,,,,,,,,,,,,,,,,,,,,,
מבצר מונפורט,33.0443649,35.2266006,,,he:מונפור (מבצר),,,,,,,,,,,,שרידי מבצר צלבני על ראש הגבעה. שווה את העליה אם אתם מטיילים בנחל כזיב.,,,שרידי מבצר צלבני על ראש הגבעה. שווה את העליה אם אתם מטיילים בנחל כזיב.,,,,,,,,https://upload.wikimedia.org/wikipedia/commons/7/72/Israel_Hiking_Map_%D7%9E%D7%91%D7%A6%D7%A8_%D7%9E%D7%95%D7%A0%D7%A4%D7%95%D7%A8%D7%98.jpeg,https://upload.wikimedia.org/wikipedia/commons/4/4b/%D7%9E%D7%91%D7%A6%D7%A8_%D7%9E%D7%95%D7%A0%D7%A4%D7%95%D7%A8%D7%98_%D7%91%D7%96%D7%A8%D7%99%D7%97%D7%94.JPG,https://upload.wikimedia.org/wikipedia/commons/d/db/Israel_Hiking_Map_מבצר_מונפורט_1.jpeg,https://upload.wikimedia.org/wikipedia/commons/f/fd/IHM_מבצר_מונפורט.jpeg,https://upload.wikimedia.org/wikipedia/commons/6/67/IHM_מבצר_מונפורט_1.jpeg,https://upload.wikimedia.org/wikipedia/commons/8/89/IHM_מבצר_מונפורט_2.jpeg,https://upload.wikimedia.org/wikipedia/commons/9/9d/IHM_מבצר_מונפורט_3.jpeg,,,,,,,,,,,,,,,,,,,,,Montfort,Monfor,Qalaat el Qourein,Starkenburg,,,,,,,Montfort,,מבצר מונפורט,,,,,,,,,,,,,,,,,,,,,,,,,,,,,,,,,,,,,,,,,,,,,,,,,Q14201945,,
תל שלווים,32.540278,35.4069441,,,,,,,,,,,,,,,,,,,,,,,,,,,,,,,,,,,,,,,,,,,,,,,,,,,,,Tel Salwim,Tel Shalwim,,,,,,,,,,,תל שלווים,,,,,,,,,,,,,,,,,,,,,,,,,,,,,,,,,,,,,,,,,,,,,,,,,,,
תל תורמוס,33.2135243,35.6481361,,,,,,,,,,,,,,,,,,,,,,,,,,,,,,,,,,,,,,,,,,,,,,,,,,,,,Tel Turmus,,,,,,,,,,,,תל תורמוס,,,,,,,,,,,,,,,,,,,,,,,,,,,,,,,,,,,,,,,,,,,,,,,,,,,
Tel Hamid,31.899722,34.892222,,,,,,,,,,,,,,,,,,,,,,,,,,,,,,,,,,,,,,,,,,,,,,,,,,,,,Tel Hamid,,,,,,,,,,,,תל חמיד,,,,,,,,,,,,,,,,,,,,,,,,,,,,,,,,,,,,,,,,,,,,,,,,,,,
תל בד,33.0645248,35.1761558,,,,,,,,,,,,,,,,,,,,,,,,,,,,,,,,,,,,,,,,,,,,,,,,,,,,,Tel Bad,Tall Al Baiyad,Bayyad,,,,,,,,,,תל בד,,,,,,,,,,,,,,,,,,,,,,,,,,,,,,,,,,,,,,,,,,,,,,,,,,,
בניאס,33.2487821,35.6946764,,,en:Banias,,,,,,,,,,,,,,,,,,,,,,,,,,,,,,,,,,,,,,,بانياس,,,,,,,,,,,Banias,,,,,,,,,,Baniyas,,בניאס,,,,,,,,,,,,,,,,,,,,,,,,,,,,,,,,,,,Césarée de Philippe,,,,,,,,,,,,,,Q606295,,
Soloi,35.1406719,32.8125385,,,,,,,,,,,,,,,,,,,,,,,,,,,,,,,,,,,,,,,,,,,,,,,,,,,,,,,,,,,,,,,,,,,,,,,,,,,,,,,,,,,,,,,,,,,,,,,,,,,,,,,,,,,,,http://www.kiprguru.com/project/%d0%b4%d1%80%d0%b5%d0%b2%d0%bd%d0%b8%d0%b9-%d0%b3%d0%be%d1%80%d0%be%d0%b4-%d1%81%d0%be%d0%bb%d0%b8,,,,,Q1757296,,
Choirokoitia Neolithic Settlement,34.7968951,33.3449235,,,en:Khirokitia,,,,,,,,,,,,,,,,,,,,,neolithic,,,,,,,,,,,,,,,,,,,,,,,,,,,,,,,,,,,,,,,,,,,,,,,,,,,,,,,,Archeologinė vietovė,,,,,,,,,,Археопарк Хирокития,,,,,,,,,,,,,,,,,,,,,,,,Q385086,,
Ligrin tou Digeni,34.6904663,32.6240279,,,,,,,,,,,,,,,,,,,,,,,,,,,,,,,,,,,,,,,,,,,,,,,,,,,,,,,,,,,,,,,,,,,,,,,,,,,,,,,,,,,,,,,,,,,,,,,,,,,,,,,,,,,,,,,,,,,,
Tall adh-Dhahab (West),32.1856796,35.6865613,,,,,,,,,,,,,,,,,,,,,,,,,,,,,,,,,,,,,,,,,,,,,,,,,,,,,,,,,,,,,,,,,,,,,,,,,,,,,,,,,,,,,,,,,,,,,,,,,,,,,,,,,,,,,,,,,,,,
Kral Mezarları,36.190164,29.8597913,,,,,,,,,,,,,,,,,,,,,,,,,,,,,,,,,,,,,,,,,,,,,,,,,,,,,,,,,,,,,,,,,,,,,,,,,,,,,,,,,,,,,,,,,,,,,,,,,,,,,,,,,,,,,,,,,,,,
Vouni Palace,35.1591599,32.7733273,,,,,,,,,,,,,,,,,,,,,,,,,,,,,,,,,,,,,,,,,,,,,,,,,,,,,,,,,,,,,,,,,,,,,,,,,,,,,,,,,,,,,,,,,,,,,,,,,,,,,,,,,,,,,http://www.kiprguru.com/project/%d0%b4%d0%b2%d0%be%d1%80%d0%b5%d1%86-%d0%b2%d1%83%d0%bd%d0%b8,,,,,,,
باب المعبد الغربي,33.5114652,36.305392,,,,,,,,,,,,,,,,,,,,,,,,,,,,,,,,,,,,,,,,,,باب المعبد الغربي,,,,,,,,,,,Western Temple Gate,,,,,,,,,,Porte Ouest du Temple,,,,,,,,,,,,,,,,,,,,,,,,,,,,,,,,,,,,,,,,,,,,,,,,,,,,,
باب المعبد الشرقي,33.5115998,36.3088999,,,,,,,,,,,,,,,,,,,,,,,,,,,,,,,,,,,,,,,,,,باب المعبد الشرقي,,,,,,,,,,,Eastern Temple Gate,,,,,,,,,,Eastern Temple Gate,,,,,,,,,,,,,,,,,,,,,,,,,,,,,,,,,,,,,,,,,,,,,,,,,,,,,
الباب الروماني,33.5091014,36.310929,,,,,,الباب الروماني,,,,,,,,,,,,,,,,,,,,,,,,,,,,,,,,,,,,الباب الروماني,,,,,,,,,,,Roman Gate,,,,,,,,,,Porte Romaine,,,,,,,,,,,,,,,,,,,,,,,,,,,,,,,,,,,,,,,,,,,,,,,,,,,,,
Aspendos,36.939111,31.1727469,,,tr:Aspendos,,,,,,,,,,,,,,,,,,,,,,,,,,,,,,,,,,,,,,,,,,,,,,,,,,,,,,,,,,,,,,,,,,,,,,,,,,,,,,,,,,,,,,,Аспендос,,,,,,,,,,,,,,,,,,,,,,,,Q633757,,
Monastiraki,34.8463168,32.5017662,,,,,,,,,,,,,,,,,,,,,,,,,,,,,,,,,,,,,,,,,,,,,,,,,,,,,,,,,,,,,,,,,,,,,,,,,,,,,,,,,,,,,,,,,,,,,,,,,,,,,,,,,,,,,,,,,,,,
הרודיון,31.6656103,35.2418154,,,en:Herodium,,,,,,,,,,,,,,,,,,,,,,,,,,,,,,,,,,,,,,,الفرديس,,,,,,,,,,,Herodion Ruins,,,,,,,,,,,,הרודיון,,,,,,,,,,,,,,,,,,,,,,,,,,,,,,,,,,,,,,,,,,,,,,,,,Q913099,,
The Roman Stairs,32.2167107,35.2630426,,,,,,,,,,,,,,,,,,,,,,,,,,,,,,,,,,,,,,,,,,الادراج الرومانية,,,,,,,,,,,,,,,,,,,,,,,,,,,,,,,,,,,,,,,,,,,,,,,,,,,,,,,,,,,,,,,,,,,,,,,,,,
Roman Forum,32.2769073,35.1921543,,,,,,,,,,,,,,,,,,,,,,,,,,,,,,,,,,,,,,,,,,الاثار الرومانية,,,,,,,,,,,Roman Forum,,,,,,,,,,,,,,,,,,,,,,,,,,,,,,,,,,,,,,,,,,,,,,,,,,,,,,,,,,,,,,,
منطقة أثرية,31.4704666,35.0565491,,,,,,,,,,,,,,,מערות קבורה מרשימות עם משקוף מעוטר,,,מערות קבורה מרשימות עם משקוף מעוטר,,,,,,,,https://upload.wikimedia.org/wikipedia/commons/5/56/IHM_מערות_קבורה.jpeg,https://upload.wikimedia.org/wikipedia/commons/b/b6/IHM_מערות_קבורה_1.jpeg,,,,,,,,,,,,,,,منطقة أثرية,,,,,,,,,,,Historical Graves,,,,,,,,,,,,מערות קבורה,,,,,,,,,,,,,,,,,,,,,,,,,,,,,,,,,,,,,,,,,,,,,,,,,,,
Roman Theatre,32.277211,35.1907267,,,,,,,,,,,,,,,,,,,,,,,,,,,,,,,,,,,,,,,,,,المدرج الروماني,,,,,,,,,,,Roman Theatre,,,,,,,,,,,,,,,,,,,,,,,,,,,,,,,,,,,,,,,,,,,,,,,,,,,,,,,,,,,,,,,
Zawata,32.2200495,35.2774173,,,,,,,,,,,,,,,,,,,,,,,,,,,,,,,,,,,,,,,,,,منطقة اثرية,,,,,,,,,,,,,,,,,,,,,,,,,,,,,,,,,,,,,,,,,,,,,,,,,,,,,,,,,,,,,,,,,,,,,,,,,,
Columns,32.2753134,35.1886938,,,,,,,,,,,,,,,,,,,,,,,,,,,,,,,,,,,,,,,,,,اعمدة,,,,,,,,,,,Columns,,,,,,,,,,,,,,,,,,,,,,,,,,,,,,,,,,,,,,,,,,,,,,,,,,,,,,,,,,,,,,,
العروب القديمة,31.6205554,35.1418943,,,,,,,,,,,,,,,,,,,,,,,,,,,,,,,,,,,,,,,,,,العروب القديمة,,,,,,,,,,,Old Al-Arroub,,,,,,,,,,,,,,,,,,,,,,,,,,,,,,,,,,,,,,,,,,,,,,,,,,,,,,,,,,,,,,,
بيوت قديمة,31.8803417,35.2259396,,,,,,,,,,,,,,,,,,,,,,,,,,,,,,,,,,,,,,,,,,بيوت قديمة,,,,,,,,,,,Old Houses,,,,,,,,,,,,,,,,,,,,,,,,,,,,,,,,,,,,,,,,,,,,,,,,,,,,,,,,,,,,,,,
Roman Houses,31.8569041,35.2616619,,,,,,,,,,,,,,,,,,,,,,,,,,,,,,,,,,,,,,,,,,بيوت رومانية,,,,,,,,,,,Roman Houses,,,,,,,,,,,,,,,,,,,,,,,,,,,,,,,,,,,,,,,,,,,,,,,,,,,,,,,,,,,,,,,
بيوت قديمة,31.8801836,35.2266879,,,,,,,,,,,,,,,,,,,,,,,,,,,,,,,,,,,,,,,,,,بيوت قديمة,,,,,,,,,,,Old Houses,,,,,,,,,,,,,,,,,,,,,,,,,,,,,,,,,,,,,,,,,,,,,,,,,,,,,,,,,,,,,,,
Old Mosque,31.9164755,35.11528,,,,,,,,,,,,,,,,,,,,,,,,,,,,,,,,,,,,,,,,,,المسجد القديم,,,,,,,,,,,,,,,,,,,,,,,,,,,,,,,,,,,,,,,,,,,,,,,,,,,,,,,,,,,,,,,,,,,,,,,,,,
قبر النبي صالح,32.0172464,35.1253847,,,,,,,,,,,,,,,,,,,,,,,,,,,,,,,,,,,,,,,,,,قبر النبي صالح,,,,,,,,,,,An Nabi Salih Grave,,,,,,,,,,,,,,,,,,,,,,,,,,,,,,,,,,,,,,,,,,,,,,,,,,,,,,,,,,,,,,,
قصر هشام,31.8818828,35.4599692,,,he:ח'רבת אל-מפג'ר,,,,,,,,,,,,,,,,,,,,,,,,,,,,,,,,,,,,,,,قصر هشام,,,,,,,,,,,Qasr Hisham,,,,,,,,,,Palais d'Hisham,,חורבת אל-מפג׳ר,,,,,,,,,,,,,,,,,,,,,,,,,,,,,,,,,,,,,,,,,,,,,,,,,Q2456319,,
Kur,32.2358085,35.0973823,,,,,,,,,,,,,,,,,,,,,,,,,,,,,,,,,,,,,,,,,,مبنى اثري,,,,,,,,,,,,,,,,,,,,,,,,,,,,,,,,,,,,,,,,,,,,,,,,,,,,,,,,,,,,,,,,,,,,,,,,,,
Old THeater,32.318375,35.0801238,,,,,,,,,,,,,,,,,,,,,,,,,,,,,,,,,,,,,,,,,,مسرح قديم,,,,,,,,,,,,,,,,,,,,,,,,,,,,,,,,,,,,,,,,,,,,,,,,,,,,,,,,,,,,,,,,,,,,,,,,,,
Ariassos,37.1820636,30.4744698,,,en:Ariassos,,,Ariassus,,,,,,,,,,,,,,,,,,,,,,,,,,,,,,,,,,,,,,,,,,,,,,Άριασσός,,,,,,,,,,,,,,,,,,,,,,,,,,,,,,,,,,,,,,,,,,,,,,,,,,,,,,,,,,,,,,Q656882,,
Squar Opening,29.8683839,31.2156657,,,,,,,,,,,,,,,,,,,,,,,,,,,,,,,,,,,,,,,,,,,,,,,,,,,,,,,,,,,,,,,,,,,,,,,,,,,,,,,,,,,,,,,,,,,,,,,,,,,,,,,,,,,,,,,,,,,,
Imhotep Temple,29.8692653,31.2173461,,,,,,,,,,,,,,,,,,,,,,,,,,,,,,,,,,,,,,,,,,,,,,,,,,,,,,,,,,,,,,,,,,,,,,,,,,,,,,,,,,,,,,,,,,,,,,,,,,,,,,,,,,,,,,,,,,,,
Serapheum,29.8760471,31.2100388,,,,,,,,,,,,,,,,,,,,,,1,ancient_egyptian,,,,,,,,,,,,,,,,,,,,,,,,,,,,,,,,,,,,,,,,,,,,,,,Szerafeum,,,,,,,,,,,,,,,,,,,,Серапиум,,,,,,,,,,,,,,,,necropolis,,,,,,,,,,
המקדש הכלכוליתי,31.4684486,35.388382,,,en:Chalcolithic Temple of Ein Gedi,,,,,,,,,,,,,,,,,,,,,,,https://upload.wikimedia.org/wikipedia/commons/9/96/Israel_Hiking_Map_המקדש_הכלכוליתי.jpeg,,,,,,,,,,,,,,,,معبد نحاسي,,,,,,,,,,,Chalcolithic Temple,,,,,,,,,,,,המקדש הכלכוליתי,,,,,,,,,,,,,,,,,,,,,,,,,,,,,,,,,,,,,,,,,,,,,,,,,,,
השער הכנעני,33.2478606,35.6547785,,,,,,,,,,Abraham's Gate,שער אברהם,,,,,,,,,,,,,,,,,,,,,,,,,,,,,,,,,,,,,,,,,,Canaanite Gate,,,,,,,,,,,,השער הכנעני,,,,,,,,,,,,,,,,,,,,,,,,,,,,,,,,,,,,,,,,,,,,,,,,,,,
Little Petra,30.3751131,35.4509057,,,,,,,,,,,,,,,,,,,,,,,,,,https://d1cuyjsrcm0gby.cloudfront.net/5SG_aXERO-PQdqPmLbXaBA/thumb-2048.jpg,,,,,,,,,,,,,,,https://www.mapillary.com/map/im/5SG_aXERO-PQdqPmLbXaBA,,,,,,,,,,,,,,,,,,,,,,,,,,,,,,,,,,,,,,,,,,,,,,,,,,,,,,,,,,,,,,,,,,,,,,,,,Q2284751,,
النبي داوود,33.5287708,35.3816641,,,,,,"An Nabi Dawud,An Nabī Dāwūd, En Nabi Dâoûd",,,,,,,,,,,,,,,,,,,,,,,,,,,,,,,,,,,,النبي داوود,,,,,,,,,En Nabi Daoud,,En Nabi Daoud,,,,,,,,,,En Nabi Daoud,,,,,,,,,,,,,,,,,,,,,,,,,,,,,,,,,,,,,,,,,,,,,,,,,,,,,
Kings Tomb 8,34.7764661,32.405082,,,en:Tombs of the Kings (Paphos),,,,,,,,,,,,,,,,,,,,,,,,,,,,,,,,,,Paphos,,,,,,,,,,,,,,,,,,,,,,,,,,,,,,,,,,,,,,,,,,,,,,,,,,,,,Царские гробницы 8,,,,,,,,,,,,,,,,,,,,,,,,Q1796353,,
Kings Tomb 5,34.7767951,32.4044658,,,en:Tombs of the Kings (Paphos),,,,,,,,,,,,,,,,,,,,,,,,,,,,,,,,,,Paphos,,,,,,,,,,,,,,,,,,,,,,,,,,,,,,,,,,,,,,,,,,,,,,,,,,,,,Царские гробницы 5,,,,,,,,,,,,,,,,,,,,,,,,Q1796353,,
Kings Tomb 9,34.7762878,32.4068475,,,,,,,,,,,,,,,,,,,,,,,,,,,,,,,,,,,,,Paphos,,,,,,,,,,,,,,,,,,,,,,,,,,,,,,,,,,,,,,,,,,,,,,,,,,,,,Царские гробницы 9,,,,,,,,,,,,,,,,,,,,,,,,,,
Kings Tomb 3,34.7758591,32.4049479,,,en:Tombs of the Kings (Paphos),,,,,,,,,,,,,,,,,,,,,,,,,,,,,,,,,,Paphos,,,,,,,,,,,,,,,,,,,,,,,,,,,,,,,,,,,,,,,,,,,,,,,,,,,,,Царские гробницы 3,,,,,,,,,,,,,,,,,,,,,,,,Q1796353,,
Kings Tomb 4,34.7759284,32.4046081,,,en:Tombs of the Kings (Paphos),,,,,,,,,,,,,,,,,,,,,,,,,,,,,,,,,,Paphos,,,,,,,,,,,,,,,,,,,,,,,,,,,,,,,,,,,,,,,,,,,,,,,,,,,,,Царские гробницы 4,,,,,,,,,,,,,,,,,,,,,,,,Q1796353,,
Kings Tomb 6,34.7778361,32.4050672,,,,,,,,,,,,,,,,,,,,,,,,,,,,,,,,,,,,,Paphos,,,,,,,,,,,,,,,,,,,,,,,,,,,,,,,,,,,,,,,,,,,,,,,,,,,,,,,,,,,,,,,,,,,,,,,,,,,,,,,
Kings Tomb 7,34.778263,32.4047692,,,,,,,,,,,,,,,,,,,,,,,,,,,,,,,,,,,,,Paphos,,,,,,,,,,,,,,,,,,,,,,,,,,,,,,,,,,,,,,,,,,,Karalių kapai,,,,,,,,,,,,,,,,,,,,,,,,,,,,,,,,,,,,
Qaşr Dabbāgh,32.7548686,36.6825706,,,,,,قصر دباغ,,,,,,,,,,,,,,,,,,,,,,,,,,,,,,,"Syria, الجمهورية العربية السورية ، سوريا",,,,,قصر دباغ,قصر دباغ,,,,,,,,Qasr Dabbagh,,Qasr Dabbagh,,,,,,,,,,Qasr Dabbagh,,,,,,,,,,,,,,,,,,,,,,,,,,,,,,,,,,قصر دباغ,,,,,,,,,,,,,,,,,,,
تل ضهر الشويرة,36.6465219,39.498189,,,,,,تل ضهر الشويرة,,,,,,,,,,,,,,,,,,,,,,,,,,,,,,"Tell Chuera, Tell Dahr ech Choueira, Tell Dahr ech Choueïra, Tall Ḑahr ash Shuwayrah","Syria, الجمهورية العربية السورية ، سوريا",,,,,تل ضهر الشويرة,تل ضهر الشويرة,,,,,,,,Tall Dahr ash Shuwayrah,,Tall Dahr ash Shuwayrah,,,,,,,,,,Tell Chuera,,,,,,,,,,,,,,,,,,,,,,,,,,,,,,,,,,,peak,,,,,,,,,,,,,,,,,,
حبوبة الكبيرة,36.1833333,38.0666667,,,,,,حبوبة الكبيرة,,,,,,,,,,,,,,,,,,,,,,,,,,,,,,"Habbouba Kebire, Habboûba Kébîré, Habbubah Kabir, Habbubah al Kabir, Ḩabbūbah Kabīr, Ḩabbūbah al Kabīr, Ḩabbūbah al Kabīrah","Syria, الجمهورية العربية السورية ، سوريا",,,,,حبوبة الكبيرة,حبوبة الكبيرة,,,,,,,,Habbubah al Kabirah,,Habbubah al Kabirah,,,,,,,,,,Habbubah al Kabirah,,,,,,,,,,,,,,,,,,,,,,,,,,,,,,,,,,,,,,,,,,,,,,,,,,,,,
תל בורגה,32.5219441,34.9655817,,,,,,,,,,,,,,,,,,,,,,,,,,,,,,,,,,,,,,,,,,,,,,,,,,,,,Tel Burga,,,,,,,,,,,,תל בורגה,,,,,,,,,,,,,,,,,,,,,,,,,,,,,,,,,,,,,,,,,,,,,,,,,,,
قصر الأزرق‎,31.8801761,36.8272558,,,en:Qasr Azraq,,,,,,,,,,,,,,,,,,,,,,,,,,,,,,,,,,,,,castle,,قصر الأزرق‎,,,,,,,,,,,Qasr Al-Azraq,,,,,,,,,,,,,,,,,,,,,,,,,,,,,,,,,,,,,,,,,,,,,,,,locality,,,,,,,,,,,,,Q2121495,,
חורבת יונים,31.623934,34.9655466,,,,,,,,,,,,,,,"חרבת יונים-חרבת אל חמאמה
שרידי מבנים וכנסייה, כולל מערת פעמון, מערת קולומבריום ובורות מים.
במקום נמצא בשנת 2003 אוצר מטבעות זהב גדול מהתקופה הביזנטית.",,,"חרבת יונים-חרבת אל חמאמה
שרידי מבנים וכנסייה, כולל מערת פעמון, מערת קולומבריום ובורות מים.
במקום נמצא בשנת 2003 אוצר מטבעות זהב גדול מהתקופה הביזנטית.",,,,,,,,,,,,,,,,,,,,,,,,,,,,,,,,,,,Khirbat el Hammam,,,,,,,,,,,,חורבת יונים,,,,,,,,,,,,,,,,,,,,,,,,,,,,,,,,,,,,,,,,,,,,,,,,,,,
חורבת כפר ביש,31.613259,34.9531496,,,,,,,,,,,,,,,,,,,,,,,,,,,,,,,,,,,,,,,,,,,,,,,,,,,,,Horbat Kfar Bish,,,,,,,,,,,,חורבת כפר ביש,,,,,,,,,,,,,,,,,,,,,,,,,,,,,,,,,,,,,,,,,,,,,,,,,,,
Yazılıkaya,40.0254251,34.6327074,,,en:Yazılıkaya,,,,,,,,,,,,,,,,,,,,,,,,,,,,,,,,,,,,,,,,,,,,,,,,,,,,,,,,,,,,,,,,,,,,,,,,,,,,,Jaziliskaja,,,,,,,,,,Язылыкая,,,,,,,,,,,,,,,,place_of_worship,,,,,,,,Q529923,,
Latrinae,37.9316256,29.1222279,,,,,,,,,,,,,,,,,,,,,,,,,,,,,,,,,,,,,,,,,,,,,,,,,,,,,,,,,,,,,,,,,,,,,,,,,,,,,,,,,,,,,,,,,,,,,,,,,,,,,,,,,,,,,,,,,,,,
עבדת,30.794096,34.7731819,,,he:עבדת,,,,,,,,,,,,,,,,,,,,,,,https://upload.wikimedia.org/wikipedia/commons/5/52/Israel_Hiking_Map_%D7%A2%D7%91%D7%93%D7%AA.jpeg,,,,,,,,,,,,,,,,,,,,,,,,Avdat,Avdat,,Avdat,,,,,,,,Avdat,Avdat,Avdat,,עבדת,,,,,,,,Avdat,アヴダト,,,,,,Avdatas,,Авдат,,Avdat,,,Oboda,Obodate,,Авдат,Avdat,,Avdat,Авдат,Avdat,,,,,,,,,,,,,,,,,,,Q791665,,
מבצר נמרוד,33.252728,35.7148766,,,,,,,,,,,,,,,,,,,,,,,,,,https://upload.wikimedia.org/wikipedia/commons/e/e1/Israel_Hiking_Map_%D7%9E%D7%91%D7%A6%D7%A8_%D7%A0%D7%99%D7%9E%D7%A8%D7%95%D7%93.jpeg,https://upload.wikimedia.org/wikipedia/commons/5/55/IHM_מבצר_נמרוד.jpeg,https://upload.wikimedia.org/wikipedia/commons/8/8e/IHM_מבצר_נמרוד_1.jpeg,https://upload.wikimedia.org/wikipedia/commons/f/fe/IHM_מבצר_נמרוד_2.jpeg,https://upload.wikimedia.org/wikipedia/commons/8/89/IHM_מבצר_נמרוד_3.jpeg,,,,,,,,,,,,قلعة الصبيبة,,,,,,,,,Burg Nimrod,,Nimrod Fortress,,,,,,,,,,Forteresse de Nimrod,,מבצר נמרוד,,,,,,,,,,,,,,,,,,,,,,,,,,,,,,,,,,,,,,,,,,,,,,,,,Q1404704,,
תל צובה,31.7848554,35.1257839,,,,,,,,,,,,,,,תל עתיק שרידי מבצר צלבני. נקודת תצפית מרהיבה על הרי ירושלים.,,,תל עתיק שרידי מבצר צלבני. נקודת תצפית מרהיבה על הרי ירושלים.,,,769,,,,,,,,,,,,,,,,,,,,,,,,,,,,,,,,Tel Tzoba,,,,,,,,,,,,תל צובה,,,,,,,,,,,,,,,,,,,,,,,,,,,,,,,,,peak,,,,,,,,,,,,,,,,,,
רוג'ום אל הירי,32.9086513,35.801037,,,he:גלגל רפאים,,,,,,,Rujm el-Hiri,,,,,,,,,,,,,,,,https://upload.wikimedia.org/wikipedia/commons/b/bf/IHM_רוג'ום_אל_הירי.jpeg,https://upload.wikimedia.org/wikipedia/commons/9/92/IHM_רוג'ום_אל_הירי_1.jpeg,https://upload.wikimedia.org/wikipedia/commons/4/43/IHM_רוג'ום_אל_הירי_2.jpeg,,,,,,,,,,,,,,رجم الهري,,,,,,,,,,,Rujum el Hiri,,,,,,,,,,Rujm el-Hiri,,רוג'ום אל הירי,,גלגל רפאים,,,,,,,,,,,,,,,,,,,,Rujum el Hiri,,,Колесо духов,,,,,,,,,,,,,,,,megalith,,,,,,,,Q1914227,,
מבצר הורקניה,31.7189026,35.3655396,,,he:הורקניה (מבצר),,,,,,,,,,,,"הורקניה היא מבצר עתיק במדבר יהודה מתקופת החשמונאים והורדוס. במקום נמצאים גם שרידי כנסייה מהתקופה הביזנטית ואמות מים.

",,,"הורקניה היא מבצר עתיק במדבר יהודה מתקופת החשמונאים והורדוס. במקום נמצאים גם שרידי כנסייה מהתקופה הביזנטית ואמות מים.

",,,,,,,,https://upload.wikimedia.org/wikipedia/commons/2/2a/Israel_Hiking_Map_%D7%9E%D7%91%D7%A6%D7%A8_%D7%94%D7%95%D7%A8%D7%A7%D7%A0%D7%99%D7%94.jpeg,,,,,,,,,,,,,,,,,,,,,,,,,,,Hurkania,,,,,,,,,,,,מבצר הורקניה,,,,,,,,,,,,,,,,,,,,,,,,,,,,,,,,,,,,,,,,,,,,,,,,,,,
Karatepe,37.2958505,36.2537475,,,en:Karatepe,,,Kara Tepe;Azatiwataya;Azatiwata,,,,,,,,,,,,,,,,,,,,,,,,,,,,,,,,,,,,,,,,,,,,,,,,,,,,,,,,,,,,,,,,,,,,,,,,,,,,,,,,,,,,,,,,,,,,,,,,,,,,,,,,,,,,Q1729026,,
Laodicea,37.8358733,29.1088423,,,en:Laodicea on the Lycus,,,,,,,,,,,,,,,,,,,,,,,,,,,,,,,,,,,,,,,,,,,,,,,,,,,,,,,,,,,,,,,,,,,,,,,,,,,,,,,,,,,,,,,Лаодикея на Лике,,,,,,,,,,,locality,,,,,,,,,,,,,Q849709,,
Termessos - Cisterns,36.9826915,30.4634428,,,,,,,,,,,,,,,,,,,,,,,,,,,,,,,,,,,,,,,,,,,,,,,,,,,,,,,,,,,,,,,,,,,,,,,,,,,,,,,,,,,,,,,,,,Термессос - Цистерны,,,,,,,,,,,,,,,,,,,,,,,,,,
Termessos - Corinth Temple,36.9828305,30.4627523,,,,,,,,,,,,,,,,,,,,,,,,,,,,,,,,,,,,,,,,,,,,,,,,,,,,,,,,,,,,,,,,,,,,,,,,,,,,,,,,,,,,,,,,,,,,,,,,,,,,,,,,,,,,,,,,,,,,
Termessos - Rock Tombs,36.9861318,30.4637637,,,,,,,,,,,,,,,,,,,,,,,,,,,,,,,,,,,,,,,,,,,,,,,,,,,,,,,,,,,,,,,,,,,,,,,,,,,,,,,,,,,,,,,,,,,,,,,,,,,,,,,,,,,,,,,,,,,,
חורבת עקב,32.5437381,34.9356421,,,,,,,,,,,,,,,"חורבת עקב הוא שמה העברי של ח’רבת מנצור אל-עקב, שרידים ארכיאולוגיים של מתחם הנמצא בנקודה הגבוהה ביותר ברמת הנדיב, על המצוק הדרום-מערבי של הכרמל. המתחם שימש למגורים בשתי תקופות עיקריות: בית שני והתקופה הביזנטית.",,Horvat Aqav (Hirbet Mantzur al-Aqav) are archaeological remains located at the highest point of Ramat Hanadiv. The compound was used as living quarters during two main periods: the Second Temple Period and the Byzantine Period.,"חורבת עקב הוא שמה העברי של ח’רבת מנצור אל-עקב, שרידים ארכיאולוגיים של מתחם הנמצא בנקודה הגבוהה ביותר ברמת הנדיב, על המצוק הדרום-מערבי של הכרמל. המתחם שימש למגורים בשתי תקופות עיקריות: בית שני והתקופה הביזנטית.",,,,,,,,https://upload.wikimedia.org/wikipedia/commons/9/90/IHM_חורבת_עקב.jpeg,https://upload.wikimedia.org/wikipedia/commons/a/a5/IHM_חורבת_עקב_1.jpeg,,,,,,,,,,,,,,,,,,,,,,,,,,Horvat Akav,,,,,,,,,,,,חורבת עקב,,,,,,,,,,,,,,,,,,,,,,,,,,,,,,,,,,,,,,,,,,,,,,,,,,,
أهرام أبو صير,29.8960933,31.2055264,,,,,,أهرام أبو صير,,,,,,,,,,,,,,,,,,,,,,,,,,,,,,"Ahrāmāt Abū Şīr, Ahramat Abu Sir",,,,,,أهرام أبو صير,أهرام أبو صير,,,,,,,Abúsír,Ahramat Abu Sir,,Ahramat Abu Sir,,,,,,,,,,Ahramat Abu Sir,,,,,,,,,,,,,,,,,,,,,,,,,,,,,,,,,,,,,,locality,,,,,,,,,,,,,,,
مصطبة مروروكة,29.8833055,31.2166617,,,,,,مصطبة مروروكة,,,,,,,,,,,,,,,,yes,ancient_egyptian,,,,,,,,,,,,,"Maṣṭaba of Meruduka,",,,,grave_yard,,مصطبة مروروكة,مصطبة مروروكة,,,,,,,,Mastaba of Meruduka,,Mastaba of Meruduka,,,,,,,,,,Mastaba of Meruduka,,,,,,,,,,,,,,,,,,,,,,,,,,,,,,,,,,,,,,,,,,,,,,,,,,,,,
هرم المهربش,29.8666791,31.2170471,,,,,,هرم المهربش,,,,,,,,,,,,,,,,,,,,,,,,,,,,,,"Haram el Maharbash,",,,,,,هرم المهربش,هرم المهربش,,,,,,,,Haram al Maharbash,,Haram al Maharbash,,,,,,,,,,Haram al Maharbash,,,,,,,,,,,,,,,,,,,,,,,,,,,,,,,,,,,,,,locality,,,,,,,,,,,,,,,
هرم الملكة أودجبتن,29.8328611,31.2173008,,,,,,هرم الملكة أودجبتن,,,,,,,,,,,,,,,,,,,,,,,,,,,,,,Pyramid of Queen Udjebten,,,,,,هرم الملكة أودجبتن,هرم الملكة أودجبتن,,,,,,,,Pyramid of Queen Udjebten,,Pyramid of Queen Udjebten,,,,,,,,,,Pyramid of Queen Udjebten,,,,,,,,,,,,,,,,,,,,,,,,,,,,,,,,,,,,,,locality,,,,,,,,,,,,,,,
هرم الملائكة الإثنين,29.7833376,31.2000317,,,,,,هرم الملائكة الإثنين,,,,,,,,,,,,,,,,,,,,,,,,,,,,,,Pyramid of the Two Angles,,,,,,هرم الملائكة الإثنين,,,,,,,,,Pyramid of the Two Angles,,Pyramid of the Two Angles,,,,,,,,,,Pyramid of the Two Angles,,,,,,,,,,,,,,,,,,,,,,,,,,,,,,,,,,,,,,locality,,,,,,,,,,,,,,,
هرم سنوسرت الثالث,29.8190131,31.2184739,,,,,,هرم سنوسرت الثالث,,,,,,,,,,,,,,,,,,,,,,,,,,,,,,"Haram Senûsret III, Haram Senusret III",,,,,,هرم سنوسرت الثالث,هرم سنوسرت الثالث,,,,,,,,Haram Senusret III,,Haram Senusret III,,,,,,,,,,Haram Senusret III,,,,,,,,,,,,,,,,,,,,,,,,,,,,,,,,,,,,,,locality,,,,,,,,,,,,,,,
خربة حمام الصرخ,32.0834605,36.3631802,,,,,,,,,,,,,,,,,,,,,,,,,,,,,,,,,,,,Khirbat Ḥamman Sarkh;Qasr Hammam Sarkh;Qasr Hammam al Sarrah,"Jordan, الأردن",,,,,خربة حمام الصرخ,,,,,,,,,Khirbat Hamman Sarkh,,Hammam as-Sarah,,,,,,,,,,Khirbat Hamman Sarkh,,,,,,,,,,,,,,,,,,,,,,,,,,,,,,,,,,,,,,locality,,,,,,,,,,,,,,,
أم الجمال,32.3276049,36.3704669,,,en:Umm el-Jimal,,,Umm al Jimāl;Um al Djimal;Umm el-Jimal;Umm ej Jemāl;Umm idj-Djimal;al-Herri,,,,,,,,,,,,,,,,,,,,,,,,,,,,,,Umm el Djimal; Um al Djimal,"Jordan, الأردن",,,,,أم الجمال,,,,,,,,,Um al Djimal,,Um Al-Jimal,,,,,,,,,,Um al Djimal,,,,,,,,,,,,,,,,,,,,,,,,,,,,,,,,,,,,,,locality,,,,,,,,http://www.ummeljimal.org/,,,,,Q3107493,,
המצודה האשורית,31.9751993,34.7648999,,,he:המצודה האשורית (ראשון לציון),,,,,,,,,,,,,,,,,,,,,,,,,,,,,,,,,,,,,,,,,,,,,,,,,,Ashurian fortress,,,,,,,,,,La forteresse assyrienne,,המצודה האשורית,,,,,,,,,,,,,,,,,,,,,,,,,,,,,,,,,,,,,,,,,,,,,,,,,Q6815941,,
Selge,37.2294647,31.126099,,,tr:Selge,,,,,,,,,,,,,,,,,,,,,,,,,,,,,,,,,,,,,,,,,,,,,,,,,Σελγη,,,,,,,,,,,,,,,,,,,,,,,,,,,,,,,,,,,,,,,,,,,,,,,,,,,,,,city,,,,,,,,Q769197,"Selge, Pisidia",
מתחם התיאטרון - הרודיון,31.6667213,35.2420581,,,,,,,,,,,,,,,,,,,,,,,,,,,,,,,,,,,,,,,,,,,,,,,,,,,,,Herod's Ancient Amphitheatre,,,,,,,,,,,,מתחם התיאטרון - הרודיון,,,,,,,,,,,,,,,,,,,,,,,,,,,,,,,,,,,,,,,,,,,,,,,,,,,
הרודיון התחתית,31.6687205,35.2403117,,,,,,,,,,,,,,,,,,,,,,,,,,,,,,,,,,,,,,,,,,,,,,,,,,,,,Lower Herodion,,,,,,,,,,,,הרודיון התחתית,,,,,,,,,,,,,,,,,,,,,,,,,,,,,,,,,,,,,,,,,,,,,,,,,,,
מבנה קבר הורדוס,31.6663117,35.2425047,,,,,,,,,,,,,,,,,,,,,,,,,,,,,,,,,,,,,,,,,,,,,,,,,,,,,Herod's Tomb,,,,,,,,,,,,מבנה קבר הורדוס,,,,,,,,,,,,,,,,,,,,,,,,,,,,,,,,,,,,,,,,,,,,,,,,,,,
הגן הרומי,31.6687205,35.2389581,,,,,,,,,,,,,,,,,,,,,,,,,,,,,,,,,,,,,,,,,,,,,,,,,,,,,Roman Garden,,,,,,,,,,,,הגן הרומי,,,,,,,,,,,,,,,,,,,,,,,,,,,,,,,,,,,,,,,,,,,,,,,,,,,
בורות המים,31.6655631,35.2419869,,,,,,,,,,,,,,,,,,,,,,,,,,,,,,,,,,,,,,,,,,,,,,,,,,,,,Water Cisterns,,,,,,,,,,,,בורות המים,,,,,,,,,,,,,,,,,,,,,,,,,,,,,,,,,cave_entrance,,,,,,,,,,,,,,,,,,
בורות המים,31.6665028,35.2420815,,,,,,,,,,,,,,,,,,,,,,,,,,,,,,,,,,,,,,,,,,,,,,,,,,,,,Water Cisterns,,,,,,,,,,,,בורות המים,,,,,,,,,,,,,,,,,,,,,,,,,,,,,,,,,cave_entrance,,,,,,,,,,,,,,,,,,
חוות הגתות,31.7506905,35.1016211,,,,,,,,,,,,,,,,,,,,,714,,,,,,,,,,,,,,,,,,,,,,,,,,,,,,,,Winepresses,,,,,,,,,,,,חוות הגתות,,,,,,,,,,,,,,,,,,,,,,,,,,,,,,,,,peak,,,,,,,,,,,,,,,,,,
חורבת תנשמת,31.9979267,34.9583054,,,,,,,,,,,,,,,"במקום פסיפס עתיק, שרידי כנסייה והסברים קוליים לילדים, מבוגרים ותיירים.",,,"במקום פסיפס עתיק, שרידי כנסייה והסברים קוליים לילדים, מבוגרים ותיירים.",,,,,,,,https://upload.wikimedia.org/wikipedia/commons/4/42/Israel_Hiking_Map_%D7%97%D7%95%D7%A8%D7%91%D7%AA_%D7%AA%D7%A0%D7%A9%D7%9E%D7%AA.jpeg,https://upload.wikimedia.org/wikipedia/commons/c/c1/Israel_Hiking_Map_%D7%97%D7%95%D7%A8%D7%91%D7%AA_%D7%AA%D7%A0%D7%A9%D7%9E%D7%AA_1.jpeg,,,,,,,,,,,,,,,,,,,,,,,,,,Horvat Tinshemet,Owl Ruins,,,,,,,,,,,חורבת תנשמת,,,,,,,,,,,,,,,,,,,,,,,,,,,,,,,,,,,,,,,,,,,,http://www.eyarok.org.il/trip.aspx?id=238,,,,,,,
Archaeological park II & Burnt Palace,31.7167064,35.7948629,,,,,,,,,,,,,,,,,,,,,,,,,,,,,,,,,,,,,,,,,,,,,,,,,,,,,,,,,,,,,,,Le Palais Brûlé,,,,,,,,,,,,,,,,,,,,,,,,,,,,,,,,,,,,,,,,,,,,,,,,,,,,,
Madaba Archaeological Park,31.7161544,35.7955083,,,,,,,,,,,,,,,,,,,,,,,,,,,,,,,,,,,,,,,,,,,,,,,,,,,,,,,,,,,,,,,Parc Archéologique,,,,,,,,,,,,,,,,,,,,,,,,,,,,,,,,,,,,,,,,,,,,,,,,,,,,,
Khirbet el Mekhayat,31.7494726,35.7443518,,,,,,,,,,,,,,,,,,,,,,,,,,,,,,,,,,,,,,,,,,,,,,,,,,,,,,,,,,,,,,,,,,,,,,,,,,,,,,,,,,,,,,,,,,,,,,,,,,,,,,,,,,,,,,,,,,,,
Tell Madaba,31.7149126,35.7920611,,,,,,,,,,,,,,,,,,,,,,,,,,,,,,,,,,,,,,,,,,,,,,,,,,,,,,,,,,,,,,,,,,,,,,,,,,,,,,,,,,,,,,,,,,,,,,,,,,,,,,,,,,,,,,,,,,,,
Madaba Museum,31.7139817,35.7923401,,,,,,,,,,,,,,,,,,,,,,,,,,,,,,,,,,,,,,,,,,,,,,,,,,,,,,,,,,,,,Museo de Madaba,,,,,,,,,,,,,,,,,,,,,,,,,,,,,,,,,,,,,,,,,,,,,,,,,,,,,,,
כתובת גזר מס. 12,31.842762,34.9354208,,,,,,,,,,,,,,,,,,,,,,,,,,,,,,,,,,,,,,,,,,,,,,,,,,,,,,,,,,,,,,,,,כתובת גזר מס. 12,,,,,,,,,,,,,,,,,,,,,,,,,,,,,,,,,,,,,,,,,,,,,,,,,,,
אמפיתאטרון,31.6081446,34.8939867,,,,,,,,,,,,,,,,,,,,,,,,,,,,,,,,,,,,,,,,,,,,,,,,,,,,,Amphitheater,,,,,,,,,,Amphithéâtre d'Eleutheropolis,,אמפיתאטרון,,,,,,,,,,,,,,,,,,,,,,,,,,,,,,,,,,,,,,,,,,,,,,,,,Q28974152,,
קולומבריום,31.6591721,34.9735184,,,,,,,,,,,,,,,,,,,,,,,,,,https://upload.wikimedia.org/wikipedia/commons/a/a5/Israel_Hiking_Map_%D7%A7%D7%95%D7%9C%D7%95%D7%9E%D7%91%D7%A8%D7%99%D7%95%D7%9D_2.jpeg,,,,,,,,,,,,,,,,,,,,,,,,,,,Columbarium,,,,,,,,,,,,קולומבריום,,,,,,,,,,,,,,,,,,,,,,,,,,,,,,,,,,,,,,,,,,,,,,,,,,,
Dara-Anastasiopolis,37.1813902,40.9535784,,,de:Dara-Anastasiupolis,,,,,,,,,,,,,,,,,,,,,,,,,,,,,,,,,,,,,,,,,,,,,,,,Dara-Anastasiupolis,Δαραί;’Aναστασιούπολις,Dara,,,,,,,,,,,,,,,,,,,,,,,,,,,,,,,,,,,,,,,,,,,,,,,,,,,,,,,,,,,,,Q585145,,
אבני מיל רומיות,31.8199883,35.0382767,,,,,,,,,,,,,,,אבני המייל מהתקופה הרומית נמצאות על תוואי הדרך ירושלים-אמאוס. הכתובות שעל האבנים מכילות מידע על הדרך ועל הקיסר שבזמנו הוצבה האבן.,,,אבני המייל מהתקופה הרומית נמצאות על תוואי הדרך ירושלים-אמאוס. הכתובות שעל האבנים מכילות מידע על הדרך ועל הקיסר שבזמנו הוצבה האבן.,,,,,,,,https://upload.wikimedia.org/wikipedia/commons/d/db/Israel_Hiking_Map_%D7%90%D7%91%D7%A0%D7%99_%D7%9E%D7%99%D7%9C_%D7%A8%D7%95%D7%9E%D7%99%D7%95%D7%AA.jpeg,https://upload.wikimedia.org/wikipedia/commons/0/0e/Israel_Hiking_Map_%D7%90%D7%91%D7%A0%D7%99_%D7%9E%D7%99%D7%9C_%D7%A8%D7%95%D7%9E%D7%99%D7%95%D7%AA_1.jpeg,,,,,,,,,,,,,,,,,,,,,,,,,,Roman Mile Stones,,,,,,,,,,,,אבני מיל רומיות,,,,,,,,,,,,,,,,,,,,,,,,,,,,,,,,,,,,,,,,,,,,,,,,,,,
Wadi Jadid Dolmens,31.7285849,35.7218897,,,,,,,,,,,,,,,,,,,,,,,,,,,,,,,,,,,,,,,,dolmen,,,,,,,,,,,,,,,,,,,,,,,,,,,,,,,,,,,,,,,,,,,,,,,,,,,,,,,,,,,,,,,,,,megalith,,,,,,,,,,
מצד ירוחם,30.9851307,34.9046358,,,,,,,,,,,,,,,,,,,,,,,,,,,,,,,,,,,,,,,,,,,,,,,,,,,,,Yeroham Stronghold,,,,,,,,,,,,מצד ירוחם,,,,,,,,,,,,,,,,,,,,,,,,,,,,,,,,,,,,,,,,,,,,,,,,,,,
Roman Site,32.2789647,35.8864304,,,,,,,,,,,,,,,,,,,,,,,,,,,,,,,,,,,,,,,,,,,,,,,,,,,,,,,,,,,,,,,,,,,,,,,,,,,,,,,,,,,,,,,,,,,,,,,,,,,,,,,,,,,,,,,,,,,,
Keysun Kalesi,37.5613131,37.8560268,,,,,,,,,,,,,,,,,,,,,,,,,,,,,,,,,,,,,,,,mound,,,,,,,,,,,,,Fortress of Kaysun,,,,,,,,,,,,,,,,,,Քեսունի բերդ,,,,,,,,,,,,,,,,,,,,,,,,,,,,,,,,,,,,,,,,,,,Q3814092,,
עשר המצבות,31.8599815,34.9209862,,,,,,,,,,,,,,,,,,,,,,,,,,https://upload.wikimedia.org/wikipedia/commons/b/b7/Israel_Hiking_Map_%D7%A2%D7%A9%D7%A8_%D7%94%D7%9E%D7%A6%D7%91%D7%95%D7%AA.jpeg,,,,,,,,,,,,,,,,,,,,,,,,,,,the 10 monuments,,,,,,,,,,,,עשר המצבות,,,,,,,,,,,,,,,,,,,,,,,,,,,,,,,,,,,,,,,,,,,,,,,,,,,
מפעל המים,31.8587742,34.9198341,,,,,,,,,,,,,,,,,,,,,,,,,,https://upload.wikimedia.org/wikipedia/commons/7/75/Israel_Hiking_Map_%D7%9E%D7%A4%D7%A2%D7%9C_%D7%94%D7%9E%D7%99%D7%9D_1.jpeg,,,,,,,,,,,,,,,,,,,,,,,,,,,Water Works,,,,,,,,,,,,מפעל המים,,,,,,,,,,,,,,,,,,,,,,,,,,,,,,,,,,,,,,,,,,,,,,,,,,,
Çattepe Höyük,37.7301516,41.7786195,,,,,,,,,,,,,,,,,,,,,,,,,,,,,,,,,,,,,,,,,,,,,,,,,,,,,,,,,,,,,,,,,,,,,,,,,,,,,,,,,,,,,,,,,,,,,,,,,,,,,,,,,,tumulus,,,,,,,,,,
Zeviya Tivilki,37.5342721,41.8195964,,,,,,Tivilki tarlası,,,,,,,,,,,,,,,,,,,,,,,,,,,,,,,,,,,,,,,,,,,,,,,,,,,,,,,,,,,,,,,,,,,,,,,,,,,,,,,,,,,,,,,,,,,,,,,,,http://antiquity.ac.uk/projgall/okse323/,,,,,,,,,,,,,
Talavaş Höyüğü,37.8550641,40.8774368,,,,,,,,,,,,,,,,,,,,,,,,,,,,,,,,,,,,,,,,,,,,,,,,,,,,,,,,,,,,,,,,,,,,,,,,,,,,,,,,,,,,,,,,,,,,,,,,,,,,,,,,,,tumulus,,,,,,,,,,
Takyan Tepe,37.1644579,42.4103607,,,,,,,,,,,,,,,,,,,,,,,,,,,,,,,,,,,,,,,,mound,,,,,,,,,,,,,,,,,,,,,,,,,,,,,,,,,,,,,,,,,,,,,,,,,,,,,,,,,,,,,,,,,,,,,,,,,,,,
Sarıköy Höyüğü,37.2871865,41.6226107,,,,,,,,,,,,,,,,,,,,,,,,,,,,,,,,,,,,,,,,mound,,,,,,,,,,,,,,,,,,,,,,,,,,,,,,,,,,,,,,,,,,,,,,,,,,,,,,,,,,,,,,,,,,,,,,,,,,,,
Kütnüs Höyük,37.2617676,42.345711,,,,,,,,,,,,,,,,,,,,,,,,,,,,,,,,,,,,,,,,mound,,,,,,,,,,,,,,,,,,,,,,,,,,,,,,,,,,,,,,,,,,,,,,,,,,,,,,,,,,,,,,,,,,,,,,,,,,,,
Tepeli Höyüğü,37.3218414,41.7977149,,,,,,,,,,,,,,,,,,,,,,,,,,,,,,,,,,,,,,,,mound,,,,,,,,,,,,,,,,,,,,,,,,,,,,,,,,,,,,,,,,,,,,,,,,,,,,,,,,,,,,,,,,,,,,,,,,,,,,
Herakleia Salbace Hieron,37.6284547,29.0368143,,,,,,,,,,,,,,,,,,,,,,,,,,,,,,,,,,,,Herakleia Salbace Hieron,,,,,,,,,,,,,,,,,,,,,,,,,,,,,,,,,,,,,,,,,,,,,,,,,,,,,,,,,,,,,,,,,,,,,,,,,,,,,,,,
Herakleia Salbace,37.6248255,28.9859547,,,,,,,,,,,,,,,,,,,,,,,,,,,,,,,,,,,,,,,,,,,,,,,,,,,,,,,,,,,,,,,,,,,,,,,,,,,,,,,,,,,,,,,,,,,,,,,,,,,,,,,,,,,,,,,,,,,,
חורבת מדרס,31.6559382,34.9374688,,,,,,,,,,,,,,,,,,,,,,,,,,,,,,,,,,,,,,,,,,,,,,,,,,,,,Hirbet Midras,,,,,,,,,,,,חורבת מדרס,,,,,,,,,,,,,,,,,,,,,,,,,,,,,,,,,,,,,,,,,,,,,,,,,,,
תל מיכל,32.1595828,34.7971931,,,he:תל מיכל,,,,,,,,,,,,גבעה חמודה מעל מרינה הרצליה. מומלצת לשיטוט בחורף ולרכיבה אחרי גשם בלבד.,,,גבעה חמודה מעל מרינה הרצליה. מומלצת לשיטוט בחורף ולרכיבה אחרי גשם בלבד.,,,,,,,,https://upload.wikimedia.org/wikipedia/commons/5/58/IHM_תל_מיכל.jpeg,https://upload.wikimedia.org/wikipedia/commons/7/7a/IHM_תל_מיכל_1.jpeg,,,,,,,,,,,,,,,,,,,,,,,,,,Tel Michal,,,,,,,,,,Tel Michal,,תל מיכל,,,,,,,,,,,,,,,,,,,,,,,,,,,,,,,,,,,,,,,,,,,,,,,,,Q6448087,,
כנסיה ביזאנטית,31.6568127,34.936821,,,,,,,,,,,,,,,,,,,,,,,,,,https://upload.wikimedia.org/wikipedia/commons/7/72/Israel_Hiking_Map_%D7%9B%D7%A0%D7%A1%D7%99%D7%94_%D7%91%D7%99%D7%96%D7%90%D7%A0%D7%98%D7%99%D7%AA.JPG,,,,,,,https://upload.wikimedia.org/wikipedia/commons/3/31/Israel_Hiking_Map_%D7%9B%D7%A0%D7%A1%D7%99%D7%94_%D7%91%D7%99%D7%96%D7%90%D7%A0%D7%98%D7%99%D7%AA_1.JPG,https://upload.wikimedia.org/wikipedia/commons/f/f6/Israel_Hiking_Map_%D7%9B%D7%A0%D7%A1%D7%99%D7%94_%D7%91%D7%99%D7%96%D7%90%D7%A0%D7%98%D7%99%D7%AA_2.JPG,,,,,,,,,,,,,,,,,,,Bizantine Church,,,,,,,,,,,,כנסיה ביזאנטית,,,,,,,,,,,,,,,,,,,,,,,,,,,,,,,,,,,,,,,,,,,,,,,,,,,
בית ארבעת המרחבים,32.1026413,34.7979641,,,,,,,,,,,,,,,,,,,,,,,,,,,,,,,,,,,,,,,,,,,,,,,,,,,,,Four room house,,,,,,,,,,,,בית ארבעת המרחבים,,,,,,,,,,,,,,,,,,,,,,,,,,,,,,,,,,,,,,,,,,,,,,,,,,,
Mastaba of Ti,29.8775921,31.2119117,,,,,,,,,,,,,,,,,,,,,,1,ancient_egyptian,,,,,,,,,,,,,,,,,,,,,,,,,,,,,,,,,,,,,,,,,,,,,,,,,,,,,,,,,,,,,,,,,,,,,,,,,,,,,,,,,,,necropolis,,,,,,,,,,
Tombs of 3rd Dynasty,29.8768204,31.2132845,,,,,,,,,,,,,,,,,,,,,,yes,ancient_egyptian,,,,,,,,,,,,,,,,,,,,,,,,,,,,,,,,,,,,,,,,,,,,,,,,,,,,,,,,,,,,,,,,,,,,,,,,,,,,,,,,,,,necropolis,,,,,,,,,,
Philosopher's Circle,29.8748295,31.2125335,,,,,,,,,,,,,,,,,,,,,,yes,,,,,,,,,,,,,,,,,,,,,,,,,,,,,,,,,,,,,,,,,,,,,,,,Filozófusok köre,,,,,,,,,,,,,,,,,,,,,,,,,,,,,,,,,,,,,,,,,,,,,,
צריח ממלוכי,31.8655986,34.7469374,,,,,,,,,,,,,,,,,,,,,,,,,,,,,,,,,,,,,,,,,,منارة المملوك,,,,,,,,,,,Mamaluk minaret,,,,,,,,,,,,צריח ממלוכי,,,,,,,,,,,,,,,,,,,,,,,,,,,,,,,,,,,,,,,,,,,,,,,,,,,
חפירות,31.7699119,35.229603,,,,,,,,,,,,,,,,,,,,,,,,,,,,,,,,,,,,,,,,,,,,,,,,,,,,,Excavations,,,,,,,,,,,,חפירות,,,,,,,,,,,,,,,,,,,,,,,,excavări,,,,,,,,,,,,,,,,,,,,,,,,,,,
סביל אבו-נבוט,31.9161183,34.7716396,,,,,,,,,,,,,,,,,,,,,,,,,,https://upload.wikimedia.org/wikipedia/commons/8/80/IHM_סביל_אבו-נבוט.jpeg,https://upload.wikimedia.org/wikipedia/commons/3/3d/IHM_סביל_אבו-נבוט_1.jpeg,,,,,,,,,,,,,,,,,,,,,,,,,,Abu-Nabut Sabil,,,,,,,,,,,,סביל אבו-נבוט,,,,,,,,,,,,,,,,,,,,,,,,,,,,,,,,,spring,,,,,,,,,,,,,,,,,,
Tell Dayr Alla,32.1969599,35.6211243,,,en:Deir Alla,,,,,,,,,,,,,,,,,,,,,,,,,,,,,,,,,,,,,,,تل دير علا,,,,,,,,,,,,,,,,,,,,,,,,,,,,,,,,,,,,,,,,,,,,,,,,,,,,,,,,,,,,,,,,,,,,,,,,Q4166525,,
שער העיר מימי רעמסס השני,32.0537762,34.7528719,,,,,,,,,,,,,,,,,,,,,,,,,,,,,,,,,,,,,,,,,,,,,,,,,,,,,Ra'amsses II City Gate,,,,,,,,,,,,שער העיר מימי רעמסס השני,,,,,,,,,,,,,,,,,,,,,,,,,,,,,,,,,,,,,,,,,,,,,,,,,,,
مدرج روماني,32.7058177,36.5647957,,,,,,,,,,,,,,,,,,,,,,,,,,,,,,,,,,,,,,,,,,,,,,,,,,,,,,,,,,,,,,,,,,,,,,,,,,,,,,,,,,,,,,,,,,,,,,,,,,,,,,,,,,,,,,,,,,,,
Naula,36.4748843,32.1167673,,,,,,,,,,,,,,,,,,,,,,,,,,,,,,,,,,,,,,,,,,,,,,,,,,,,,,,,,,,,,,,,,,,,,,,,,,,,,,,,,,,,,,,,,,Наула,,,,,,,,,,,,,,,,,,,,,,,,,,
حمام القرماني,33.513767,36.2994296,,,,,,,,,,,,,,,,,,,,,,,,,,,,,,,,,,,,,,,,,,حمام القرماني,,,,,,,,,,,Hammam Al-Aramani,,,,,,,,,,,,חמאם אל־קרמאני,,,,,,,,,,,,,,,,,,,,,,,,,,,,,,,,,,,,,,,,,,,,,,,,,,,
Tel Hebron,31.5251263,35.1020631,,,,,,,,,,,,,,,,,,,,,,,,,,,,,,,,,,,,,,,,,,تل الرميدة,,,,,,,,,,,Tel Hebron,,,,,,,,,,,,תל חברון,,,,,,,,,,,,,,,,,,,,,,,,,,,,,,,,,,,,,,,,,,,,,,,,,,,
Cave,34.8155239,32.8745785,,,,,,,,,,,,,,,,,,,,,,,,,,,,,,,,,,,,,,,,,,,,,,,,,,,,,,,,,,,,,,,,,,,,,,,,,,,,,,,,,,,,,,,,,,,,,,,,,,,,,,,,,,,,,,,,,,,,
פסיפס,32.7531895,35.2795881,,,,,,,,,,,,,,,,,,,,,,,,,,,,,,,,,,,,,,,,,,,,,,,,,,,,,Mosaic Floor,,,,,,,,,,,,פסיפס,,,,,,,,,,,,,,,,,,,,,,,,,,,,,,,,,,,,,,,,,,,,,,,,,,,
בית הקשתות,31.842905,35.025547,,,,,,,,,,,,,,,מבנה שלם בעל קשתות ובו בריכה. מתמלא בחורפים גשומים דרך נקבה ממעודפי ביר אל ביארה הממוקם מעט במעלה הנחל. מים קרירים המתאימים לשחייה בחורף ובתחילת האביב.ביוני המים עכורים ומגיעים לברכיים.,,,מבנה שלם בעל קשתות ובו בריכה. מתמלא בחורפים גשומים דרך נקבה ממעודפי ביר אל ביארה הממוקם מעט במעלה הנחל. מים קרירים המתאימים לשחייה בחורף ובתחילת האביב.ביוני המים עכורים ומגיעים לברכיים.,,,,,,,,https://upload.wikimedia.org/wikipedia/commons/a/aa/Israel_Hiking_Map_%D7%91%D7%99%D7%AA_%D7%94%D7%A7%D7%A9%D7%AA%D7%95%D7%AA_1.jpeg,https://upload.wikimedia.org/wikipedia/commons/6/62/Canada_Park_Hiking_Map_2_.jpg,,,,,,,,,,,,,cistern,,,,,,,,,,,,,Bet HaKshatot,Bir el Bire,,,,,,,,,,,בית הקשתות,ביר אל בירה,,,,,,,,,,,,,,,,,,,,,,,,,,,,,,,,,,,,,,,,,,,http://nelech.co.il/2020/03/19/%d7%91%d7%99%d7%aa-%d7%94%d7%a7%d7%a9%d7%aa%d7%95%d7%aa/,,,,,,,
בית מרחץ רומי,31.8397408,34.9907417,,,,,,,,,,,,,,,,,,,,,,,,,,https://upload.wikimedia.org/wikipedia/commons/8/87/Canada_Park_Hiking_Map_14.jpg,,,,,,,,,,,,,,,,,,,,,,,,,,,Roman Bath,,,,,,,,,,,,בית מרחץ רומי,,,,,,,,,,,,,,,,,,,,,,,,Băile romane,,,,,,,,,,,,,,,,,,,,,,,,,,,
Residential Quarter,32.3249304,36.3664184,,,,,,,,,,,,,,,,,,,,,,,,,,,,,,,,,,,,,,,,,,,,,,,,,,,,,,,,,,,,,,,,,,,,,,,,,,,,,,,,,,,,,,,,,,,,,,,,,,,,,,,,,,,,,,,,,,,,
Blaundus Antik Kenti,38.3573574,29.2090778,,,en:Blaundos,,,Blaundus,,,,,,,,,,,,,,,,,,,,,,,,,,,,,,,"Turkey, Uşak, Ulubey",,,,,,,,,,,,,,,Βλαῦνδος,,,,,,,,,,,,,,,,,,,,,,,,,,,,,,,,,,,,,,,,,,,,,,,,,,,,,,,,,,,,,,Q263669,,
תל גמזו,31.929863,34.946888,,,,,,,,,,,,,,,,,,,,,161,,,,,,,,,,,,,,,,,,,,,,,,,,,,,,,,Tel Gimzu,,,,,,,,,,,,תל גמזו,,,,,,,,,,,,,,,,,,,,,,,,,,,,,,,,,peak,,,,,,,,,,,,,,,,,,
Building with Olive Oil Mill,35.1801012,33.9041443,,,,,,,,,,,,,,,,,,,,,,,,,,,,,,,,,,,,,,,,,,,,,,,,,,,,,,,,,,,,,,,,,,,,,,,,,,,,,,,,,,,,,,,,,,,,,,,,,,,,,,,,,,,,,,,,,,,,
Colonnaded Street,35.1839683,33.9012314,,,,,,,,,,,,,,,,,,,,,,,,,,,,,,,,,,,,,,,,,,,,,,,,,,,,,,,,,,,,,,,,,,,,,,,,,,,,,,,,,,,,,,,,,,,,,,,,,,,,,,,,,,,,,,,,,,,,
Roman Bath,35.1844189,33.9006618,,,,,,,,,,,,,,,,,,,,,,,,,,,,,,,,,,,,,,,,,,,,,,,,,,,,,,,,,,,,,,,,,,,,,,,,,,,,,,,,,,,,,,,,,,,,,,,,,,,,,,,,,,,,,,,,,,,,
Reservoir,35.1787507,33.8991554,,,,,,,,,,,,,,,,,,,,,,,,,,,,,,,,,,,,,,,,,,,,,,,,,,,,,,,,,,,,,,,,,,,,,,,,,,,,,,,,,,,,,,,,,,,,,,,,,,,,,,,,,,,,,,,,,,,,
Ancient Theater,35.1847443,33.9025028,,,"en:Salamis, Cyprus",,,,,,,,,,,,,,,,,,,,,,,,,,,,,,,,,,,,,,,,,,,,,,,,,,,,,,,,,,,,,,,,,,,,,,,,,,,,,,,,,,,,,,,,,,,,,,,,,,,,,,,,,,,,,,,Q767089,,
Salamis,35.1856672,33.9026286,,,"en:Salamis, Cyprus",,,,,,,,,,,,,,,,,,,,,,,,,,,,,,,,,,,,,,,,,,,,,,,,,,,,,,,,,,,,,,,,,,,Szalamisz,,,,,,,,,,Archeologinė vietovė,സലാമിസ്,,,,,,,,,,,,,,,,,,,,,,,,,,,,http://www.kiprguru.com/project/salamin,,,,,Q767089,,
Forum-Agora,35.1776128,33.8993543,,,,,,,,,,,,,,,,,,,,,,,,,,,,,,,,,,,,,,,,,,,,,,,,,,,,,,,,,,,,,,,,,,,,,,,,,,,,,,,,,,,,,,,,,,,,,,,,,,,,,,,,,,,,,,,,,,,,
Roman Villa,35.1820501,33.9020549,,,,,,,,,,,,,,,,,,,,,,,,,,,,,,,,,,,,,,,,,,,,,,,,,,,,,,,,,,,,,,,,,,,,,,,,,,,,,,,,,,,,,,,,,,,,,,,,,,,,,,,,,,,,,,,,,,,,
Fish Market,35.1845168,33.9009829,,,,,,,,,,,,,,,,,,,,,,,,,,,,,,,,,,,,,,,,,,,,,,,,,,,,,,,,,,,,,,,,,,,,,,,,,,,,,,,,,,,,,,,,,,,,,,,,,,,,,,,,,,,,,,,,,,,,
Granite Forum,35.1808729,33.9003839,,,,,,,,,,,,,,,,,,,,,,,,,,,,,,,,,,,,,,,,,,,,,,,,,,,,,,,,,,,,,,,,,,,,,,,,,,,,,,,,,,,,,,,,,,,,,,,,,,,,,,,,,,,,,,,,,,,,
Colonnaded Street,35.1830257,33.9013119,,,,,,,,,,,,,,,,,,,,,,,,,,,,,,,,,,,,,,,,,,,,,,,,,,,,,,,,,,,,,,,,,,,,,,,,,,,,,,,,,,,,,,,,,,,,,,,,,,,,,,,,,,,,,,,,,,,,
Basilica of St. Epiphanius,35.1798995,33.9005501,,,,,,,,,,,,,,,,,,,,,,,,,,,,,,,,,,,,,,,,,,,,,,,,,,,,,,,,,,,,,,,,,,,,,,,,,,,,,,,,,,,,,,,,,,,,,,,,,,,,,,,,,,,,,,,,,,,,
החאן,32.6452743,35.1025611,,,,,,,,,,,,,,,,,,,,החאן,,,,,,,,,,,,,,,,,,,,,,,,,,,,,,,,,The Khan (han),,,,,,,,,,Le Khan,,חנות קירה,,,,,,,,,,,,,,,,,,,,,,,,,,,,,,,,,,,,,,,,,,,,,,,,,Q65250125,,
בית כנסת עתיק דיר עזיז,32.8641167,35.7124329,,,,,,,,,,,,,,,בית כנסת עתיק משוקם,,,בית כנסת עתיק משוקם,,,,,,,,https://upload.wikimedia.org/wikipedia/commons/3/39/Israel_Hiking_Map_בית_כנסת_עתיק_דיר_עזיז.jpeg,https://upload.wikimedia.org/wikipedia/commons/3/3b/Israel_Hiking_Map_בית_כנסת_עתיק_דיר_עזיז_1.jpeg,https://upload.wikimedia.org/wikipedia/commons/a/ae/Israel_Hiking_Map_בית_כנסת_עתיק_דיר_עזיז_2.jpeg,,,,,,,,,,,,,,,,,,,,,,,,,Deir Aziz snagogue,,,,,,,,,,,,בית כנסת עתיק דיר עזיז,,,,,,,,,,,,,,,,,,,,,,,,,,,,,,,,,,,,,,,,,,,,,,,,,,,
בית הכנסת העתיק של מירון,32.9826481,35.440007,,,,,,,,,,,,,,,,,,,,,,,,,,,,,,,,,,,,,,,,,,,,,,,,,,,,,Old Meron Synagogue,,,,,,,,,,,,בית הכנסת העתיק של מירון,,,,,,,,,,,,,,,,,,,,,,,,,,,,,,,,,,,,,,,,,,,,,,,,,,,
תל גודד,31.6333976,34.9099784,,,he:תל גודד,,,,,,,,,,,,,,,,,,398,,,,,https://upload.wikimedia.org/wikipedia/commons/e/ed/Goded_IMG_5604.JPG,,,,,,,,,,,,,,,,,,,,,,,,,,,Goded mound,,,,,,,,,,Tel Goded,,תל גודד,,,,,,,,,,,,,,,,,,,,,,,,,,,,,,,,,peak,,,,,,,,,,,,,,,,Q7697539,,
מערות המנורה,32.7005263,35.1250437,,,,,,,,,,,,,,,,,,,,,,,,,,,,,,,,,,,,,,,,,,,,,,,,,,,,,HaMenora Caves,,,,,,,,,,,,מערות המנורה,,,,,,,,,,,,,,,,,,,,,,,,,,,,,,,,,,,,,,,,,,,,,,,,,,,
Զվարթնոց տաճար,40.1599492,44.3366158,,,hy:Զվարթնոցի տաճար,,,,,,,,,,,,,,,,,,,1,Armenian,,,,,,,,,,,,,,,,,,,,,,,,,,,,,,Zvartnots Cathedral,,,,,,,,,,Cathédrale de Zvartnots,,,,,,,,Զվարթնոց տաճար,,,,,,,,,,സ്വാർട്ട്നോട്ട്സ് കത്തീഡ്രൽ,,,,,,,,,Храм Звартноц,,,,,,,,,,,locality,1011-006,,,,,,,,,(ii)(iii),2000,,Q17054090,,
שער העיר הכנעני,31.6676006,34.5487442,,,,,,,,,,,,,,,"השער הכנעני: שער קשת כנעני, הקדום ביותר שהתגלה בעולם, משנת 1850 לפנה""ס.
 נבנה מלבני בוץ וכורכר. בנוי בצורת מסדרון מקומר באורך 15 מ', גובה 4 מ', רוחב 2 מ'. בשער עברו סוחרים, שיירות גמלים, עגלות שוורים וחמורים עמוסים בסחורה בדרך אל הנמל וממנו.",,,"השער הכנעני: שער קשת כנעני, הקדום ביותר שהתגלה בעולם, משנת 1850 לפנה""ס.
 נבנה מלבני בוץ וכורכר. בנוי בצורת מסדרון מקומר באורך 15 מ', גובה 4 מ', רוחב 2 מ'. בשער עברו סוחרים, שיירות גמלים, עגלות שוורים וחמורים עמוסים בסחורה בדרך אל הנמל וממנו.",,,,,,,,https://upload.wikimedia.org/wikipedia/commons/7/75/Israel_Hiking_Map_שער_העיר_הכנעני.jpeg,https://upload.wikimedia.org/wikipedia/commons/f/f6/Israel_Hiking_Map_שער_העיר_הכנעני_1.jpeg,,,,,,,,,,,,,,,,,,,,,,,,,,Canaanite city gate,,,,,,,,,,,,שער העיר הכנעני,,,,,,,,,,,,,,,,,,,,,,,,,,,,,,,,,,,,,,,,,,,,http://h4uh.com/tour_trip_attractions_events_field_country_journey/,,,,,,,
חורבת שקלון,31.6856765,34.9349659,,,,,,,,,,,,,,,,,,,,,367,,,,,,,,,,,,,,,,,,,,,,,,,,,,,,,,Shiklon ruins,,,,,,,,,,,,חורבת שקלון,,,,,,,,,,,,,,,,,,,,,,,,,,,,,,,,,peak,,,,,,,,,,,,,,,,,,
İvriz Kaya Anıtı,37.4102877,34.172899,,,tr:İvriz,,,İvriz;Ivriz;Ibris,,,,,,,,,,,,,,,,,,,,,,,,,,,,,,,,,,,,,,,,,,,,,Felsrelief von Ivriz,,Ivriz rock reliefs,,,,,,,,,,,,,,,,,,,,,,,,,,,,,,,,,,,,,,,,,,,,,,,,,,,,,,,,,,,,,Q1404389,,
בארות מים,32.9130121,35.2713722,,,,,,,,,,,,,,,,,,,,,,,,,,,,,,,,,,,,,,,,,,,,,,,,,,,,,,,,,,,,,,,,,בארות מים,,,,,,,,,,,,,,,,,,,,,,,,,,,,,,,,,,,,,,,,,,,,,,,,,,,
מצד אבירים,33.0454699,35.2849323,,,,,,,,,,,,,,,סוף יום 1,,,סוף יום 1,,,,,,,,,,,,,,,,,,,,,,,,,,,,,,,,,,,Metzad Abirim,,,,,,,,,,,,מצד אבירים,,,,,,,,,,,,,,,,,,,,,,,,,,,,,,,,,,,,,,,,,,,,,,,,,,,
עזבת צרתה (אבן העזר),32.1046706,34.9644714,,,fr:Izbet Sartah,,,,,,,,,,,,,,,,,,,,,,,,,,,,,,,,,,,,,,,,,,,,,,,,,,Izbet Sartah,,,,,,,,,,Izbet Sartah,,עזבת צרתה (אבן העזר),,,,,,,,,,,,,,,,,,,,,,,,,,,,,,,,,,,,,,,,,,,,,,,,,Q17347088,,
אודיאון,32.7791977,35.6588211,,,,,,,,,,,,,,,אודיאון רומי (מעין תיאטרון קטן מידות) הנועד לשם הקראת שירה. כ 400 מושבים לכל היותר.,,,אודיאון רומי (מעין תיאטרון קטן מידות) הנועד לשם הקראת שירה. כ 400 מושבים לכל היותר.,,,,,,,,https://upload.wikimedia.org/wikipedia/commons/7/72/Israel_Hiking_Map_אודיאון.jpeg,,,,,,,,,,,,,,,,,,,,,,,,,,,Ancient Amphitheatre / Odeion,,,,,,,,,,,,אודיאון,,,,,,,,,,,,,,,,,,,,,,,,,,,,,,,,,,,,,,,,,,,,,,,,,,,
שער שלמה,32.5860992,35.1842031,,,,,,,,,,Solomon's gate,,,,,,,,,,,,,,,,,,,,,,,,,,,,,,,,,,,,,,,,,,,Israelite Gate,,,,,,,,,,,,שער שלמה,,,,,,,,,,,,,,,,,,,,,,,,,,,,,,,,,,,,,,,,,,,,,,,,,,,
המקדשים הכנעניים,32.5851694,35.185593,,,,,,,,,,,,,,,,,,,,,,,,,,,,,,,,,,,,,,,,,,,,,,,,,,,,,Canaanite temples,,,,,,,,,,,,המקדשים הכנעניים,,,,,,,,,,,,,,,,,,,,,,,,,,,,,,,,,,,,,,,,,,,,,,,,,,,
השער הכנעני המאוחר,32.5862077,35.184128,,,,,,,,,,,,,,,,,,,,,,,,,,,,,,,,,,,,,,,,,,,,,,,,,,,,,Later Canaanite gate,,,,,,,,,,,,השער הכנעני המאוחר,,,,,,,,,,,,,,,,,,,,,,,,,,,,,,,,,,,,,,,,,,,,,,,,,,,
האורוות הדרומיות,32.584446,35.1835548,,,,,,,,,,,,,,,,,,,,,,,,,,,,,,,,,,,,,,,,,,,,,,,,,,,,,The Southern Stables,,,,,,,,,,,,האורוות הדרומיות,,,,,,,,,,,,,,,,,,,,,,,,,,,,,,,,,,,,,,,,,,,,,,,,,,,
השערים הכנעניים הקדומים,32.5860689,35.1838495,,,,,,,,,,,,,,,,,,,,,,,,,,,,,,,,,,,,,,,,,,,,,,,,,,,,,Ancient Canaanite gate,,,,,,,,,,,,השערים הכנעניים הקדומים,,,,,,,,,,,,,,,,,,,,,,,,,,,,,,,,,,,,,,,,,,,,,,,,,,,
בור איסום,32.5848124,35.184327,,,,,,,,,,,,,,,,,,,,,,,,,,,,,,,,,,,,,,,,,,,,,,,,,,,,,Granary,,,,,,,,,,,,בור איסום,,,,,,,,,,,,,,,,,,,,,,,,,,,,,,,,,,,,,,,,,,,,,,,,,,,
ארמון ישראלי,32.5844686,35.1844075,,,,,,,,,,,,,,,,,,,,,,,,,,,,,,,,,,,,,,,,,,,,,,,,,,,,,Southern Israeli palace,,,,,,,,,,,,ארמון ישראלי,,,,,,,,,,,,,,,,,,,,,,,,,,,,,,,,,,,,,,,,,,,,,,,,,,,
הרובע האשורי,32.585056,35.1839569,,,,,,,,,,,,,,,,,,,,,,,,,,,,,,,,,,,,,,,,,,,,,,,,,,,,,Assyrian quarter,,,,,,,,,,,,הרובע האשורי,,,,,,,,,,,,,,,,,,,,,,,,,,,,,,,,,,,,,,,,,,,,,,,,,,,
"""הגלריה""",32.5848211,35.1825677,,,,,,,,,,,,,,,,,,,,,,,,,,,,,,,,,,,,,,,,,,,,,,,,,,,,,The gallery,,,,,,,,,,,,"""הגלריה""",,,,,,,,,,,,,,,,,,,,,,,,,,,,,,,,,,,,,,,,,,,,,,,,,,,
הארמונות האשוריים,32.585689,35.1837372,,,,,,,,,,,,,,,,,,,,,,,,,,,,,,,,,,,,,,,,,,,,,,,,,,,,,Assyrian Palace,,,,,,,,,,,,הארמונות האשוריים,,,,,,,,,,,,,,,,,,,,,,,,,,,,,,,,,,,,,,,,,,,,,,,,,,,
האורוות הצפוניות,32.5859125,35.1850083,,,,,,,,,,,,,,,,,,,,,,,,,,,,,,,,,,,,,,,,,,,,,,,,,,,,,The Northern Stables,,,,,,,,,,,,האורוות הצפוניות,,,,,,,,,,,,,,,,,,,,,,,,,,,,,,,,,,,,,,,,,,,,,,,,,,,
ארמון כנעני,32.5859735,35.1839515,,,,,,,,,,,,,,,,,,,,,,,,,,,,,,,,,,,,,,,,,,,,,,,,,,,,,Canaanite palace,,,,,,,,,,,,ארמון כנעני,,,,,,,,,,,,,,,,,,,,,,,,,,,,,,,,,,,,,,,,,,,,,,,,,,,
אל-אחוואט,32.4867107,35.0937327,,,,,,,,,,,,,,,,,,,,,,,,,,,,,,,,,,,,,,,,,,,,,,,,,,,,,Ahwat,,,,,,,,,,Ahwat,,אל-אחוואט,,,,,,,,,,,,,,,,,,,,,,,,,,,,,,,,,,,,,,,,,,,,,,,,,Q1988646,,
השער הכנעני,31.8587952,34.9201469,,,,,,,,,,,,,,,,,,,,,,,,,,https://upload.wikimedia.org/wikipedia/commons/2/24/Israel_Hiking_Map_%D7%94%D7%A9%D7%A2%D7%A8_%D7%94%D7%9B%D7%A0%D7%A2%D7%A0%D7%99.jpeg,,,,,,,,,,,,,,,,,,,,,,,,,,,,,,,,,,,,,,,השער הכנעני,,,,,,,,,,,,,,,,,,,,,,,,,,,,,,,,,,,,,,,,,,,,,,,,,,,
מבצר פלגרין,32.7055852,34.9337448,,,,,,,,,,,,,,,,,,,,,,,,,,,,,,,,,,,,,,,,,,,,,,,,,,,,,Pelegrin Fortress,,,,,,,,,,,,מבצר פלגרין,,,,,,,,,,,,,,,,,,,,,,,,,,,,,,,,,,,,,,,,,,,,,,,,,,,
מבצר דטרוא,32.7077342,34.946099,,,he:מבצר דטרוא,,,,,,,,,,,,,,,,,,,,,,,,,,,,,,,,,,,,,,,,,,,,,,,,,,Le Destroit,,,,,,,,,,Tour du Détroit,,מבצר דטרוא,,,,,,,,,,,,,,,,,,,,,,,,,,,,,,,,,,,,,,,,,,,,,,,,,Q1809843,,
בית הכנסת העתיק בית אלפא,32.5185966,35.4273567,,,he:בית הכנסת בבית אלפא,,,,,,,,,,,,,,,,,,,,,,,,,,,,,,,,,,,,,,,,,,,,,,,,,,Beit Alfa Ancient Synagogue,,,,,,,,,,,,בית הכנסת העתיק בית אלפא,,,,,,,,,,,,,,,,,,,,,,,,,,,,,,,,,,,,,,,,,,,,,,,,,,,
גבעת הכתובות,30.8059959,34.4483643,,,,,,,,,,,,,,,"בדופן הצפונית של נחל בארותיים נתגלו שתי כתובות נוצריות על סלע מושחם. בכתובת מוזכרים השמות: ""סטפאנוס בן וואבוס"" ו""יוסף בן אלמאז"" ולידם חרוטים צלבים.",,,"בדופן הצפונית של נחל בארותיים נתגלו שתי כתובות נוצריות על סלע מושחם. בכתובת מוזכרים השמות: ""סטפאנוס בן וואבוס"" ו""יוסף בן אלמאז"" ולידם חרוטים צלבים.",,,,,,,,,,,,,,,,,,,,,,,,,,,,,,,,,,,,,,,,,,,,,,,גבעת הכתובות,,,,,,,,,,,,,,,,,,,,,,,,,,,,,,,,,,,,,,,,,,,,,,,,,,,
חורבת שוע,31.6550451,34.956392,,,,,,,,,,Khirbat Umm el Lauz,,,,,,,,,,,382,,,,,,,,,,,,,,,,,,,,,,,,,,,,,,,,Hirbet Shua,,,,,,,,,,,,חורבת שוע,,,,,,,,,,,,,,,,,,,,,,,,,,,,,,,,,,,,,,,,,,,,,,,,,,,
מצודת הונין,33.2208193,35.5443495,,,,,,,,,,,,,,,,,,,,,,,,,,https://upload.wikimedia.org/wikipedia/commons/c/c3/IHM_מצודת_הונין.jpeg,https://upload.wikimedia.org/wikipedia/commons/4/4c/IHM_מצודת_הונין_1.jpeg,https://upload.wikimedia.org/wikipedia/commons/1/12/IHM_מצודת_הונין_2.jpeg,https://upload.wikimedia.org/wikipedia/commons/9/94/IHM_מצודת_הונין_3.jpeg,https://upload.wikimedia.org/wikipedia/commons/2/22/IHM_מצודת_הונין_4.jpeg,,,,,,,,,,,,,,,,,,,,,,,,,,,,,,,,,,,מצודת הונין,,,,,,,,,,,,,,,,,,,,,,,,,,,,,,,,,,,,,,,,,,,,,,,,,,,
טחונת אם רעי,33.2431017,35.6867161,,,,,,,,,,,,,,,,,,,,,,,,,,,,,,,,,,,,,,,,,,,,,,,,,,,,,,,,,,,,,,,,,טחונת אם רעי,,,,,,,,,,,,,,,,,,,,,,,,,,,,,,,,,,,,,,,,,,,,,,,,,,,
Kilise,36.2673683,29.3178228,,,,,,,,,,,,,,,,,,,,,,,,,,,,,,,,,,,,,,,,,,,,,,,,,,,frühchristliche Kirchenruine,,Church,,,,,,,,,,Église,,,,,,,,,,,,,,,,,,,,,,,,,,,,,,,,,,,,,,,,,,,,,,,,,,,,,
Tomb of the Kings,35.175098,33.8899261,,,,,,,,,,,,,,,,,,,,,,,,,,,,,,,,,,,,,,,,,,,,,,,,,,,,,,,,,,,,,,,,,,,,,,,,,,,,,,,,,,,,,,,,,,,,,,,,,,,,,,,,,,,,,,,,,,,,
Enkomi,35.1657836,33.8706189,,,en:Enkomi,,,,,,,,,,,,,,,,,,,,,,,,,,,,,,,,,,,,,,,,,,,,,,,,,,,,,,,,,,,,,,,,,,,,,,,,,,,,,,,,,,,,,,,,,,,,,,,,,,,,,,,,,,,,,,,Q1343280,,
Cellarka,35.1728266,33.8942498,,,,,,,,,,,,,,,,,,,,,,,,,,,,,,,,,,,,,,,,,,,,,,,,,,,,,,,,,,,,,,,,,,,,,,,,,,,,,,,,,,,,,,,,,,Гробницы Челларка,,,,,,,,,,,,,,,,,,,,,,,,,,
KING TOMBS ARCHEOLOGICAL PLACE,35.0119933,34.059345,,,,,,,,,,,,,,,,,,,,,,,,,,,,,,,,,,,,,,,,,,,,,,,,,,,,,,,,,,,,,,,,,,,,,,,,,,,,,,,,,,,,,,,,,,Исторический музей Протараса,,,,,,,,,,,,,,,,,,,,,,,,,,
בורות רמליה,30.7952901,34.7556624,,,,,,,,,,,,,,,"בורות מים חצובים בגדה המערבית של הנחל
",,,"בורות מים חצובים בגדה המערבית של הנחל
",,,,,,,,https://upload.wikimedia.org/wikipedia/commons/6/64/Israel_Hiking_Map_%D7%91%D7%95%D7%A8%D7%95%D7%AA_%D7%A8%D7%9E%D7%9C%D7%99%D7%94.jpeg,,,,,,,,,,,,,,,,,,,,,,,,,,,Remalia water holes,,,,,,,,,,,,בורות רמליה,,,,,,,,,,,,,,,,,,,,,,,,,,,,,,,,,,,,,,,,,,,,,,,,,,,
מרחצאות רומיים,32.6820765,35.6646101,,,,,,,,,,,,,,,,,,,,,,,ancient_roman,,,,,,,,,,,,,,,,,,,,,,,,,,,,,,Roman Baths,,,,,,,,,,,,מרחצאות רומיים,,,,,,,,,,,,,,,,,,,,,,,,,,,,,,,,,,,,,,,,,,,,,,,,,,,
Antiochia ad Cragum,36.1562953,32.4151528,,,en:Antiochia ad Cragum,,,Antiochetta;Antiochia Parva,,,,,,,,,,,,,,,,,,,,,,,,,,,,,,,,,,,,,,,,,,,,,Antiochia am Kragos,Αντιόχεια του Κράγου,Antiochia ad Cragum,,,,,,,,,,,,,,,,,,,,,,,,,,,,,,,,,,,,,,,,,,,,,,,,,,,,,,,,,,,,,Q579389,,
Antiochia Athena Temple,36.1555576,32.4305784,,,,,,,,,,,,,,,,,,,,,,,,,,,,,,,,,,,,,,,,,,,,,,,,,,,,,,,,,,,,,,,,,,,,,,,,,,,,,,,,,,,,,,,,,,,,,,,,,,,,,,,,,,,,,,,,,,,,
חורבת ענים,31.3527991,35.06377,,,he:חורבת ענים,,,,,,,,,,,,,,,,,,,,,,,https://upload.wikimedia.org/wikipedia/commons/c/c6/IHM_חורבת_ענים.jpeg,,,,,,,,,,,,,,,,,,,,,,,,,,,Anim synagogue,,,,,,,,Sinagoga de Anim,,Anim synagogue,,חורבת ענים,,,,,,,,,,,,,,,,,,,,,,,,,,,,,,,,,,,,,,,,,,,,,,,,,Q4764711,,
תיאטרון רומי,32.6833761,35.6656279,,,,,,,,,,,,,,,,,,,,,,,ancient_roman,,,,,,,,,,,,,,,,,,,,,,,,,,,,,,Roman Theater,,,,,,,,,,,,תיאטרון רומי,,,,,,,,,,,,,,,,,,,,,,,,,,,,,,,,,,,,,,,,,,,,,,,,,,,
ח'רבת ג'ומג'ום,31.6686748,35.101896,,,he:ח'ירבת ג'ומג'ום,,,,,,,,,,,,,,,,,,,,,,,,,,,,,,,,,,,,,,,,,,,,,,,,,,Khirbet DJumdjum,,,,,,,,,,,,ח'רבת ג'ומג'ום,,,,,,,,,,,,,,,,,,,,,,,,,,,,,,,,,,,,,,,,,,,,,,,,,,,
אריסטובוליה,31.467282,35.141734,,,he:חורבת אריסטובוליה,,,,,,,,,,,,,,,,,,,,,,,https://upload.wikimedia.org/wikipedia/commons/0/01/IHM_אריסטובוליה.jpeg,https://upload.wikimedia.org/wikipedia/commons/9/96/IHM_אריסטובוליה_1.jpeg,,,,,,,,,,,,,,,,,,,,,,,,,,Aristobuliya,,,,,,,,,,,,אריסטובוליה,,,,,,,,,,,,,,,,,,,,,,,,,,,,,,,,,,,,,,,,,,,,,,,,,Q20502408,,
תל דודאים,32.5106636,34.9632373,,,,,,,,,,,,,,,,,,,,,,,,,,,,,,,,,,,,,,,,,,,,,,,,,,,,,Tel Dudaim,,,,,,,,,,,,תל דודאים,,,,,,,,,,,,,,,,,,,,,,,,,,,,,,,,,,,,,,,,,,,,,,,,,,,
Roman Graves,32.5920726,35.9535002,,,,,,,,,,,,,,,,,,,,,,,,,,,,,,,,,,,,,,,,,,,,,,,,,,,,,,,,,,,,,,,,,,,,,,,,,,,,,,,,,,,,,,,,,,,,,,,,,,,,,,,,,,,,,,,,,,,,
קברות המכבים,31.9285632,34.9944162,,,,,,,,,,,,,,,,,,,,,,,,,,,,,,,,,,,,,,,,,,,,,,,,,,,,,Maccabi Tombs,,,,,,,,,,,,קברות המכבים,,,,,,,,,,,,,,,,,,,,,,,,,,,,,,,,,,,,,,,,,,,,,,,,,,,
קצר ברדוויל,32.821446,35.7427495,,,,,,,,,,,,,,,,,,,,,,,,,,,,,,,,,,,,,,,,,,,,,,,,,,,,,,,,,,,,,,,,,קצר ברדוויל,,,,,,,,,,,,,,,,,,,,,,,,,,,,,,,,,,,,,,,,,,,,,,,,,,,
Akapnou ancient Venetian bridge,34.8414415,33.1856141,,,,,,,,,,,,,,,,,,,,,,,venetian,,,,,,,,,,,,,,,,,,,,,,,,,,,,,,,,,,,,,,,,,,,,,,,,,,,,,,,,,,,,,,,,,,,,,,,,,,,,,,,,,,,bridge,,,,,,,,,,
Bouleuterion,36.2610294,29.3146739,,,,,,,,,,,,,,,,,,,,,,,,,,,,,,,,,,,,,,,,,,,,,,,,,,,,,,,,,,,,,,,,,,,,,,,,,,,,,,,,,,,,,,,,,,,,,,,,,,,,,,,,,,,,,,,,,,,,
Medieval town,36.2636919,29.3139759,,,,,,,,,,,,,,,,,,,,,,,,,,,,,,,,,,,,,,,,,,,,,,,,,,,,,,,,,,,,,,,,,,,,,,,,,,,,,,,,,,,,,,,,,,,,,,,,,,,,,,,,,,fortification,,,,,,,,,,
טחנת קמח המופעלת בכוח המים,33.2471466,35.6916864,,,,,,,,,,,,,,,,,,,,,,,,,,,,,,,,,,,,,,,,watermill,,,,,,,,,,,,,Water-Powered Flour Mill,,,,,,,,,,,,טחנת קמח המופעלת בכוח המים,,,,,,,,,,,,,,,,,,,,,,,,,,,,,,,,,,,,,,,,,,,,,,,,,,,
יודפת העתיקה,32.8323135,35.2777328,,,,,,,,,,,,,,,,,,,,,,,,,,,,,,,,,,,,,,,,,,,,,,,,,,,,,Tel Yodfat,,,,,,,,,,Jotapata,,יודפת העתיקה,,,,,,,,,,,,,,,,,,,,,,,,,,,,,,,,,,,,,,,,,,,,,https://landmarks.gov.il/%D7%99%D7%95%D7%93%D7%A4%D7%AA-%D7%94%D7%A2%D7%AA%D7%99%D7%A7%D7%94,,,,Q1517688,,
Khirbet al-Batrawy,32.0872236,36.0707917,,,,,,,,,,,,,,,,,,,,,,,,,,,,,,,,,,,,,,,,,,,,,,,,,,,,,,,,,,,,,,,,,,,,,,,,,,,,,,,,,,,,,,,,,,,,,,,,,,,,,,,,,,,,,,,,,,,,
antique tombs,36.8873049,30.7132355,,,,,,,,,,,,,,,,,,,,,,,,,,,,,,,,,,,,,,,,,,,,,,,,,,,,,,,,,,,,,,,,,,,,,,,,,,,,,,,,,,,,,,,,,,,,,,,,,,,,,,,,,,,,,,,,,,,,
Kadınca Höyük,39.106249,34.2880662,,,,,,,,,,,,,,,,,,,,,,,,,,,,,,,,,,,,,,,,mound,,,,,,,,,,,,,,,,,,,,,,,,,,,,,,,,,,,,,,,,,,,,,,,,,,,,,,,,,,,,,,,,,,,,,,,,,,,,
İmikuşağı Höyüğü,38.5253795,38.4503904,,,tr:İmikuşağı Höyüğü,,,,,,,,,,,,,,,,,,,,,,,,,,,,,,,,,,,,,mound,,,,,,,,,,,,,,,,,,,,,,,,,,,,,,,,,,,,,,,,,,,,,,,,,,,,,,,,,,,,,,,,,,,,,,,,,,Q6101616,,
Roman Cemetery,37.6563629,30.523248,,,,,,,,,,,,,,,,,,,,,,,,,,,,,,,,,,,,,,,,,,,,,,,,,,,,,,,,,,,,,,,,,,,,,,,,,,,,,,,,,,,,,,,,,,,,,,,,,,,,,,,,,,,,,,,,,,,,
castle,36.6181222,29.1129881,,,,,,,,,,,,,,,,,,,,,,,,,,,,,,,,,,,,,,,,,,,,,,,,,,,,,,,,,,,,,,,,,,,,,,,,,,,,,,,,,,,,,,,,,,,,,,,,,,,,,,,,,,,,,,,,,,,,
Mopsos Harabesi,36.9578521,35.6237493,,,,,,"Mopsos, Seleukeia pros ton Pyramon, Mamistra, Hadriana, Decia",,,,,,,,,,,,,,,,,,,,,,,,,,,,,,,,,,,,,,,,,,,,,,,Ruin of Mopsuestia,,,,,,,,,,,,,,,,,,,,,,,,,,,,,,,,,,,,,,,,,,,,,,,,,,,,,,,,,,,,,,,
נפח,33.0616646,35.7394295,,,he:כפר נפח,,,,,,,,,,,,,,,,,,,,,,,,,,,,,,,,,,,,,,,,,,,,,,,,,,Naffach,,,,,,,,,,,,נפח,,,,,,,,,,,,,,,,,,,,,,,,,,,,,,,,,,,,,,,,,,,,,,,,,,,
Sos Höyük,39.9937275,41.5222877,,,tr:Sos Höyük,,,,,,,,,,,,,,,,,,,,,,,,,,,,,,,,,,,,,mound,,,,,,,,,,,,,,,,,,,,,,,,,,,,,,,,,,,,,,,,,,,,,,,,,,,,,,,,,,,,,,,,,,,,,,,,,,Q6097131,,
Ծիծեռնակաբերդ,40.1881744,44.4860122,,,,,,,,,,,,,,,,,,,,,,,,,,,,,,,,,,,,,,,,,,,,,,,,,,,Schwalbenfestung,,Tsitsernakaberd,,,,,,,,,,,,,,,,,,Ծիծեռնակաբերդ,,,,,,,,,,,,,,,,,,,Мемориальный комплекс Цицернакаберд,,,,,,,,,,,,,,,,,,,,,,,,,Tsitsernakaberd,
Nevali Çori,37.5251297,38.5832859,,,,,,,,,,,,,,,,,,,,,,,,,,,,,,,,,,,,,,,,,,,,,,,,,,,,,,,,,,,,,,,,,,,,,,,,,,,,,,,,,,,,,,,,,,,,,,,,,,,,,,,,,,,,,,,,,,,,
מי קדם,32.5547154,35.0060783,,,,,,פארק אלונה - מי קדם,,,,,,,,,,,,,,,,,,,,,,,,,,,,,,,,,,,,,,,,,,,,,,,Mey Kedem,,,,,,,,,,,,מי קדם,,,,,,,,,,,,,,,,,,,,,,,,,,,,,,,,,,,,,,,,,,,,,,,,,,,
קתדרלה,32.7779126,35.6606712,,,,,,,,,,,,,,,קתדרלת העיר,,,קתדרלת העיר,,,,,byzantine,,,https://upload.wikimedia.org/wikipedia/commons/4/4d/Israel_Hiking_Map_קתדרלה.jpeg,,,,,,,,,,,,,,,,,,,,,,,,,,,Cathedral,,,,,,,,,,,,קתדרלה,,,,,,,,,,,,,,,,,,,,,,,,,,,,,,,,,,,,,,,,,,,,,,,,,,,
Domuztepe Höyüğü,37.3210235,37.03569,,,tr:Domuztepe Höyüğü (Kahramanmaraş),,,,,,,,,,,,,,,,,,,,,,,,,,,,,,,,,,,,,mound,,,,,,,,,,,,,,,,,,,,,,,,,,,,,,,,,,,,,,,,,,,,,,,,,,,,,,,,,,,,,,,,,,,,,,,,,,Q4165990,,
Olive oil squeezer rock,36.6427917,31.7660271,,,,,,,,,,,,,,,,,,,,,,,,,,,,,,,,,,,,,,,,,,,,,,,,,,,,,,,,,,,,,,,,,,,,,,,,,,,,,,,,,,,,,,,,,,,,,,,,,,,,,,,,,,,,,,,,,,,,
The Giant's Walls,31.5244376,35.1015078,,,,,,,,,,,,,,,,,,,,,,,,,,,,,,,,,,,,,,,,,,,,,,,,,,,,,The Giant's Walls,,,,,,,,,,,,,,,,,,,,,,,,,,,,,,,,,,,,,,,,,,,,,,,,,,,,,,,,,,,,,,,
Yuvacalı Yerleşim Höyüğü,37.5558953,39.014309,,,,,,,,,,,,,,,,,,,,,,,,,,,,,,,,,,,,,,,,mound,,,,,,,,,,,,,Yuvacalı Settlement Mound,,,,,,,,,,,,,,,,,,,,,,,,,,,,,,,,,,,,,,,,,,,,,,,,,,,,,,,,,,,,,,,
Antiochia Termae,36.1543779,32.4271709,,,,,,,,,,,,,,,,,,,,,,,,,,,,,,,,,,,,,,,,,,,,,,,,,,,,,,,,,,,,,,,,,,,,,,,,,,,,,,,,,,,,,,,,,,,,,,,,,,,,,,,,,,,,,,,,,,,,
Roman Bath,37.1497319,38.7828389,,,,,,,,,,,,,,,,,,,,,,,,,,,,,,,,,,,,,,,,,,,,,,,,,,,,,,,,,,,,,,,,,,,,,,,,,,,,,,,,,,,,,,,,,,,,,,,,,,,,,,,,,,,,,,,,,,,,
חירבת כסכס,33.0642757,35.2610076,,,,,,,,,,,,,,,,,,,,,,,,,,,,,,,,,,,,,,,,,,,,,,,,,,,,,kaskas,,,,,,,,,,,,חירבת כסכס,,,,,,,,,,,,,,,,,,,,,,,,,,,,,,,,,,,,,,,,,,,,,,,,,,,
חירבת משמש,33.0705514,35.2538786,,,,,,,,,,,,,,,,,,,,,,,,,,,,,,,,,,,,,,,,,,,,,,,,,,,,,mishmes,,,,,,,,,,,,חירבת משמש,,,,,,,,,,,,,,,,,,,,,,,,,,,,,,,,,,,,,,,,,,,,,,,,,,,
Triumphal arch,35.5138802,35.7819961,,,,,,,,,,,,,,,,,,,,,,,,,,,,,,,,,,,,,,,,,,,,,,,,,,,,,Triumphal arch,,,,,,,,,,,,,,,,,,,,,,,,,,,,,,,,,,,,,,,,,,,,,,,,,,,,,,,,,,,,,,,
جوزانة (ثقافة خلف),36.8267852,40.0396697,,,en:Tell Halaf,,,,,,,,,,,,,,,,,,,,,,,,,,,,,,,,,,,,,,,جوزانة (ثقافة خلف),,,,,,,,,,,Gozana,,,,,,,,,,,,,,,,,,,,,,,,,,,,,,,,,,,,,Гузана (халафская культура),,,,,,,,,,,,,,,,,,,,,,,,Q2142541,,
تل موزان,37.056805,40.9974414,,,ar:تل موزان,,,أوركيش,أوركيش,,,,,,,,,,,,,تل موزان,,,,,,,,,,,,,,,,,,,,,,تل موزان,,,,,,,,,,,,,,,,,,,,,,,,,,,,,,,,,,,,Girê Mozan-Orkiş,,,,,,,,,,,,,,,,,,,,,,,,,,,,,,,,,,,,Q1758030,,
Ain Diwar Bridge,37.314535,42.2158069,,,en:Ain Diwar Bridge,,,,,,,,,,,,,,,,,,,,ancient_roman,,,,,,,,,,,,,,,,,,,,,,,,,,,,,,,,,,,,,,,,,,,,,,,,,,,,,,,,,,,,,,,,,,,,,,,,,,,,,,,,,,,,,,,,,,,Q4697337,,
Hititlilerden kalıntılar,38.2426371,36.9140376,,,,,,,,,,,,,,,,,,,,,,,,,,,,,,,,,,,,,,,,,,,,,,,,,,,,,,,,,,,,,,,,,,,,,,,,,,,,,,,,,,,,,,,,,,,,,,,,,,,,,,,,,,,,,,,,,,,,
בית גוברין,31.5979099,34.8976497,,,he:בית גוברין - מרשה,,,,,,,,,,,,,,,,,,,,,,,,,,,,,,,,,,,,,,,,,,,,,,,,,,Beit Guvrin,Bayt Jibrin,Beit Govrin,Beit Guvrin,Beit Jibrin,Beyt-Guvrin,,,,,Bet Guvrin-Maresha,,בית גוברין,בית גוברין - מרשה,,,,,,,,,,,,,,,,,,,,,,,,,,,,,,,,,,,,,,,,,,,https://www.parks.org.il/reserve-park/%d7%92%d7%9f-%d7%9c%d7%90%d7%95%d7%9e%d7%99-%d7%91%d7%99%d7%aa-%d7%92%d7%95%d7%91%d7%a8%d7%99%d7%9f/,,,,,Q2407530,,
שרידי דרך רומית,31.7664655,35.1442129,,,,,,,,,,,,,,,,,,,,,,,,,,,,,,,,,,,,,,,,,,,,,,,,,,,,,Roman Road Ruins,,,,,,,,,,,,שרידי דרך רומית,,,,,,,,,,,,,,,,,,,,,,,,,,,,,,,,,,,,,,,,,,,,,,,,,,,
מקדש הנמרים,29.9556309,34.9701207,,,,,,,,,,,,,,,אתר ארכאולוגי משוחזר ובו 12 נמרים/נמרות ופניהם מזרחה. הקבוצה הצפונית מקיפה יעל. ,,,אתר ארכאולוגי משוחזר ובו 12 נמרים/נמרות ופניהם מזרחה. הקבוצה הצפונית מקיפה יעל. ,,,,,,,,https://upload.wikimedia.org/wikipedia/commons/8/8e/Israel_Hiking_Map_%D7%9E%D7%A7%D7%93%D7%A9_%D7%94%D7%A0%D7%9E%D7%A8%D7%99%D7%9D.jpeg,https://upload.wikimedia.org/wikipedia/commons/7/70/IHM_מקדש_הנמרים.jpeg,https://upload.wikimedia.org/wikipedia/commons/8/83/IHM_מקדש_הנמרים_1.jpeg,https://upload.wikimedia.org/wikipedia/commons/8/83/IHM_מקדש_הנמרים_2.jpeg,https://upload.wikimedia.org/wikipedia/commons/a/ab/IHM_מקדש_הנמרים_3.jpeg,,,,,,,,,,,,,,,,,,,,,,,,,,,,,,,,,,,מקדש הנמרים,,,,,,,,,,,,,,,,,,,,,,,,,,,,,,,,,,,,,,,,,,,,,,,,,,,
Archäologischer Park „Durch die Zeiten“,31.7779387,35.2306121,,,,,Jerusalem,,,,,,,,,,,,,,,,,,,,,,,,,,,,,,,,,-1,,,,,,,,,,,,,Archäologischer Park „Durch die Zeiten“,,,,,,,,,,,,,,,,,,,„Az időkön át” régészeti park,,,,,,,,,,,,,,,,,,,Parcul arheologic „Timpul”,,,,,,,,,,,,,,,,,,,,,,,,,,,
نفق بلعمة,32.4440934,35.2936779,,,,,,,,,,,,,,,,,,,,أثار,,,,,,,,,,,,,,,,,,,,,,,,,,,,,,,,,,,,,,,,,,,,,,,,,,,,,,,,,,,,,,,,,,,,,,,,,,,,,,,,,,,,,,,,,,,,,,,,
خان التجار,32.2192616,35.263834,,,,,,,,,,,,,,,,,,,,,,,,,,,,,,,,,,,,,,,,,,,,,,,,,,,,,,,,,,,,,,,,,,,,,,,,,,,,,,,,,,,,,,,,,,,,,,,,,,,,,,,,,,,,,,,,,,,,
Gökçedere Höyüğü,40.1312547,39.7519345,,,,,,,,,,,,,,,,,,,,,,,,,,,,,,,,,,,,,,,,mound,,,,,,,,,,,,,,,,,,,,,,,,,,,,,,,,,,,,,,,,,,,,,,,,,,,,,,,,,,,,,,,,,,,,,,,,,,,,
Kurdu Höyük,36.3307099,36.4445869,,,tr:Tell Kurdu Höyüğü,,,,,,,,,,,,,,,,,,,,,,,,,,,,,,,,,,,,,,,,,,,,,,,,,,,,,,,,,,,,,,,,,,,,,,,,,,,,,,,,,,,,,,,,,,,,,,,,,,,,,,,,,,,,,,,Q11036281,,
Kibyra,37.1596051,29.4915765,,,tr:Kibyra,,,Cibyra,,,,,,,,,,,,,,,,,,,,,,,,,,,,,,,,,,,,,,,,,,,,,,,,,,,,,,,,,,,,,,,,,,,,,,,,,,,,,,,,,,,,,,,,,,,,,,,,,,,,,,,,,,,,Q1643467,,
Hırka Höyüğü,38.9593483,35.4386584,,,,,,,,,,,,,,,,,,,,,,,,,,,,,,,,,,,,,,,,mound,,,,,,,,,,,,,,,,,,,,,,,,,,,,,,,,,,,,,,,,,,,,,,,,,,,,,,,,,,,,,,,,,,,,,,,,,,,,
Kibyra Minor,36.6928511,31.8846612,,,,,,,,,,,,,,,,,,,,,,,,,,,,,,,,,,,,,,,,,,,,,,,,,,,,,,,,,,,,,,,,,,,,,,,,,,,,,,,,,,,,,,,,,,,,,,,,,,,,,,,,,,,,,,,,,,,,
בית ראס,32.5867002,35.1298559,,,,,,,,,,,,,,,,,,,,,,,,,,,,,,,,,,,,,,,,,,,,,,,,,,,,,beit ras,,,,,,,,,,,,בית ראס,,,,,,,,,,,,,,,,,,,,,,,,,,,,,,,,,,,,,,,,,,,,,,,,,,,
Tilkitepe Tümülüsü,40.1926915,39.6544811,,,,,,,,,,,,,,,,,,,,,,,,,,,,,,,,,,,,,,,,mound,,,,,,,,,,,,,,,,,,,,,,,,,,,,,,,,,,,,,,,,,,,,,,,,,,,,,,,,,,,,,,,,,,,,,,,,,,,,
Bronze Age Statues,35.5537583,34.2654025,,,,,,,,,,,,,,,,,,,,,,,,,,,,,,,,,,,,,,,,,,,,,,,,,,,,,,,,,,,,,,,,,,,,,,,,,,,,,,,,,,,,,,,,,,,,,,,,,,,,,,,,,,,,,,,,,,,,
קתיסמה,31.7392243,35.2127829,,,,,,,,,,,,,,,,,,,,,,,,,,,,,,,,,,,,,,,,,,,,,,,,,,,,,Kathisma,,,,,,,,,,,,קתיסמה,,,,,,,,Kathisma,,,,,,,,,,,,,,,,,,,,,,,,,,,,,,,,,,,,,,,,,,,
קלעת אבו-מען,32.8235838,35.4963979,,,,,,,,,,,,,,,"מצודה עות'מאנית מהמאה ה-17 הבנויה על הצוק ונסמכת גם על המערות הטבעיות בו.
במצודה גם שרידים לאתר יהודי קדום מתקופת המרד ברומאים",,,"מצודה עות'מאנית מהמאה ה-17 הבנויה על הצוק ונסמכת גם על המערות הטבעיות בו.
במצודה גם שרידים לאתר יהודי קדום מתקופת המרד ברומאים",,,,,ottoman,,,https://upload.wikimedia.org/wikipedia/commons/4/42/IHM_קלעת_אבו-מען.jpeg,https://upload.wikimedia.org/wikipedia/commons/5/53/IHM_קלעת_אבו-מען_1.jpeg,https://upload.wikimedia.org/wikipedia/commons/9/9f/IHM_קלעת_אבו-מען_2.jpeg,,,,,,,,,,,,,,,,,,,,,,,,,,,,,,,,,,,,,קלעת אבו-מען,,,,,,,,,,,,,,,,,,,,,,,,,,,,,,,,,,,,locality,,,,,,,,,,,,,,,
תל שרע,31.3910856,34.6802292,,,,,,,,,,,,,,,,,,,,,,,,,,,,,,,,,,,,,,,,,,,,,,,,,,,,,,,,,,,,,,,Tel Sera,,תל שרע,,,,,,,,,,,,,,,,,,,,,,,,,,,,,,,,,,,,,,,,,,,,,,,,,Q578876,,
חורבת רוגם,31.0616043,34.5889905,,,,,,,,,,,,,,,,,,,,,,,,,,,,,,,,,,,,,,,,,,,,,,,,,,,,,,,,,,,,,,,,,חורבת רוגם,,,,,,,,,,,,,,,,,,,,,,,,,,,,,,,,,,,,,,,,,,,,,,,,,,,
חורבת חשיף,31.2613181,34.6005163,,,,,,,,,,,,,,,,,,,,,,,,,,,,,,,,,,,,,,,,,,,,,,,,,,,,,,,,,,,,,,,,,חורבת חשיף,,,,,,,,,,,,,,,,,,,,,,,,,,,,,,,,,,,,,,,,,,,,,,,,,,,
Kamares Aqueduct,34.9116647,33.5976795,,,,,,,,,,,,,,,,,,,,,,,,,,,,,,,,,,,,,,,,,,,,,,,,,,,,Αρχαιολογικά ερείπια υδραγωγείου,,,,,,,,,,,,,,,,,,,,,,,,,,,,,,,,,,,,,,,,,,,,,,,,,,,,,,,,,,,,,,,,
חורבת פטום,31.6417752,34.9719899,,,,,,,,,,,,,,,,,,,,,,,,,,,,,,,,,,,,,,,,,,,,,,,,,,,,,,,,,,,,,,,,,חורבת פטום,,,,,,,,,,,,,,,,,,,,,,,,,,,,,,,,,,,,,,,,,,,,,,,,,,,
חורבת עדולם,31.6550185,35.0040905,,,,,,,,,,,,,,,,,,,,,,,,,,,,,,,,,,,,,,,,,,,,,,,,,,,,,,,,,,,,,,,,,חורבת עדולם,,,,,,,,,,,,,,,,,,,,,,,,,,,,,,,,,,,,,,,,,,,,,,,,,,,
חורבת סבע,31.6644803,34.982709,,,,,,,,,,,,,,,,,,,,,,,,,,,,,,,,,,,,,,,,,,,,,,,,,,,,,Khirbat Sab,,,,,,,,,,,,חורבת סבע,,,,,,,,,,,,,,,,,,,,,,,,,,,,,,,,,,,,,,,,,,,,,,,,,,,
חורבת אום אל בצל,31.6623489,34.9786922,,,,,,,,,,,,,,,,,,,,,,,,,,,,,,,,,,,,,,,,,,,,,,,,,,,,,Khirbat Umm el Basal,,,,,,,,,,,,חורבת אום אל בצל,,,,,,,,,,,,,,,,,,,,,,,,,,,,,,,,,,,,,,,,,,,,,,,,,,,
חורבת אם טונס,31.664704,34.9929175,,,,,,,,,,,,,,,,,,,,,,,,,,,,,,,,,,,,,,,,,,,,,,,,,,,,,Khirbat Umm Tunis,,,,,,,,,,,,חורבת אם טונס,,,,,,,,,,,,,,,,,,,,,,,,,,,,,,,,,,,,,,,,,,,,,,,,,,,
חורבת קובי,31.7282411,35.1200702,,,,,,,,,,,,,,,,,,,,,,,,,,,,,,,,,,,,,,,,,,,,,,,,,,,,,Horvat Kobi,,,,,,,,,,,,חורבת קובי,,,,,,,,,,,,,,,,,,,,,,,,,,,,,,,,,,,,,,,,,,,,,,,,,,,
חורבת וואלג'ה,31.7422927,35.1498229,,,,,,,,,,,,,,,,,,,,,,,,,,,,,,,,,,,,,,,,,,,,,,,,,,,,,,,,,,,,,,,,,חורבת וואלג'ה,,,,,,,,,,,,,,,,,,,,,,,,,,,,,,,,,,,,,,,,,,,,,,,,,,,
חורבת קייאפה,31.6964321,34.9573593,,,he:חורבת קייאפה,,,מבצר האלה,,,,,מבצר האלה,,,,,,,,,,,,,,,https://upload.wikimedia.org/wikipedia/commons/7/70/Israel_Hiking_Map_%D7%97%D7%99%D7%A8%D7%91%D7%AA_%D7%A7%D7%90%D7%99%D7%99%D7%A4%D7%94.jpeg,https://upload.wikimedia.org/wikipedia/commons/a/a0/Israel_Hiking_Map_%D7%97%D7%99%D7%A8%D7%91%D7%AA_%D7%A7%D7%90%D7%99%D7%99%D7%A4%D7%94_2.jpeg,https://upload.wikimedia.org/wikipedia/commons/2/2c/Israel_Hiking_Map_%D7%97%D7%99%D7%A8%D7%91%D7%AA_%D7%A7%D7%90%D7%99%D7%99%D7%A4%D7%94_1.jpeg,,,,,,,,,,,,,,,,,,,,,,,,,Hirbat Qaiyafa,,,,,,,,,,Khirbet Qeiyafa,,חורבת קייאפה,,,,,,,,,,,,,,,,,,,,,,,,,,,,,,,,,,,,,,,,,,,,,,,,,Q910323,,
Kerar Kalesi,38.2323271,38.8162547,,,,,,Gerar Kalesi,,,,,,,,,,,,,,,,,,,,,,,,,,,,,,,,,,,,,,,,,,,,,,,,,,,,,,,,,,,,,,,,,,,,,,,,,,,,,,,,,,,,,,,,,,,,,,,,,,,,,,,,,,,,,,
Aetokremnos,34.5705294,32.9906262,,,en:Aetokremnos,,,,,,,,,,,,,,,,,,,,,,,,,,,,,,,,,,,,,,,,,,,,,,,,,,,,,,,,,,,,,,,,,,,,,,,,,,,,,,,,,,,,,,,,,,,,,,,,,,,,,,,,,,,,,,,Q1752701,,
Kral Tepe / Vassili Hill Bronze age site,35.5189828,34.309581,,,,yes,,,,,,,,,,,,,,,,,,,,,,,,,,,,,,,,,,,,,,,,,,,,,,,,,,,,,,,,,,,,,,,,,,,,,,,,,,,,,,,,,,,,,,,,,,,,,,,,,,,,,,,,,,,,,,,,
Telandros,36.6739083,28.9164353,,,,,,Telandrus,,,,,,,,,,,,,,,,,,,,,,,,,,,,,,,,,,,,,,,,,,,,,,,,,,,,,,,,,,,,,,,,,,,,,,,,,,,,,,,,,,,,,,,,,,,,,,,,,,,,,,,https://www.megalithic.co.uk/article.php?sid=31788,,,,,,,
Kyaneai,36.2453857,29.815071,,,tr:Kyaneai,,,Cyaneae;Cyane,,,,,,,,,,,,,,,,,,,,,,,,,,,,,,,,,,,,,,,,,,,,,,Κυανέαι,,,,,,,,,,,,,,,,,,,,,,,,,,,,,,,,,,,,,,,,,,,,,,,,,,,,,,,,,,,,,,Q1762663,,
Korba,36.2893765,29.8120068,,,,,,,,,,,,,,,,,,,,,,,,,,,,,,,,,,,,,,,,,,,,,,,,,,,,,,,,,,,,,,,,,,,,,,,,,,,,,,,,,,,,,,,,,,,,,,,,,,,,,,,,,,,,,,,,,,,,
Adada,37.5727959,30.9840624,,,,,,,,,,,,,,,,,,,,,,,,,,,,,,,,,,,,,,,,,,,,,,,,,,,,,,,,,,,,,,,,,,,,,,,,,,,,,,,,,,,,,,,,,,,,,,,,,,,,,,,,,,,,,,,,,,Q346649,,
תל איילון,31.84132,35.023571,,,he:תל איילון,,,,,,,,,,,,"תל איילון הוא תל ארכאולוגי בגובה של 280 מטרים מעל פני הים, השוכן במזרחו של פארק קנדה, כ-1,200 מטרים דרומית-מערבית למבוא חורון.",,,"תל איילון הוא תל ארכאולוגי בגובה של 280 מטרים מעל פני הים, השוכן במזרחו של פארק קנדה, כ-1,200 מטרים דרומית-מערבית למבוא חורון.",,,278,,,,,https://upload.wikimedia.org/wikipedia/commons/a/a2/Kanada-Latrin.png,https://upload.wikimedia.org/wikipedia/commons/7/72/Israel_Hiking_Map_%D7%AA%D7%9C_%D7%90%D7%99%D7%99%D7%9C%D7%95%D7%9F.jpeg,https://upload.wikimedia.org/wikipedia/commons/0/00/Israel_Hiking_Map_%D7%AA%D7%9C_%D7%90%D7%99%D7%99%D7%9C%D7%95%D7%9F_1.jpeg,,,,,,,,,,,,,,,,,,,,,,,,,Tel Ayalon,,,,,,,,,,,,תל איילון,,,,,,,,,,,,,,,,,,,,,,,,,,,,,,,,,,,,,,,,,,,,,,,,,,,
Arsameia,37.9432234,38.6546922,,,en:Arsameia,,,Arsameia on the Nymphaios,,,,,,,,,,,,,,,,,,,,,,,,,,,,,,,,,,,,,,,,,,,,,Arsameia am Nymphaios,,,,,,,,,,,,,,,,,,,,Արսամեա,,,,,,,,,,,,,,,,,,,,,,Eski Kale,,,,,,,,,,,,,,,,,,,,,Q704167,,
Yavuzeli Dolmen,37.3444607,37.5638916,,,,,,,,,,,,,,,,,,,,,,,,,,,,,,,,,,,,,,,,,,,,,,,,,,,,,,,,,,,,,,,,,,,,,,,,,,,,,,,,,,,,,,,,,,,,,,,,,,,,,,,,,,,,,,,,,,,,
Yalburt Hitit Havuzu,38.454636,31.9787122,,,de:Yalburt,,,,,,,,,,,,,,,,,,,,,,,,,,,,,,,,,,,,,,,,,,,,,,,,Hethitische Teichanlage Yalburt,,Yalburt Hittite Pool,,,,,,,,,,,,,,,,,,,,,,,,,,,,,,,,,,,,,,,,,,,,,,,,locality,,,,,,,,http://proteus.brown.edu/yalburt/Home,,,,,Q2599044,,
Djinn Blocks,30.3221541,35.4642445,,,,,,,,,,,,,,,,,,,,,,,,,,https://d1cuyjsrcm0gby.cloudfront.net/D2u6_SmBJPoYHsizGp0RdQ/thumb-2048.jpg,,,,,,,,,,,,,,,https://www.mapillary.com/map/im/D2u6_SmBJPoYHsizGp0RdQ,,,,,,,,,,Geisterblöcke,,Djinn Blocks,,,,,,,,Bloques Djinn,,,,,,,,,,,,,,,,,,,,,,,,,,,,,,,,,,,,,,,,,,,,,,,,,,,,,,,
חורבת חושם,31.7284649,34.9535439,,,,,,,,,,,,,,,,,,,,,370,,,,,,,,,,,,,,,,,,,,,,,,,,,,,,,,Husham mound,,,,,,,,,,,,חורבת חושם,,,,,,,,,,,,,,,,,,,,,,,,,,,,,,,,,peak,,,,,,,,,,,,,,,,,,
hitit kabartması,38.6577551,34.2995238,,,,,,,,,,,,,,,,,,,,,,,,,,,,,,,,,,,,,,,,,,,,,,,,,,,,,,,,,,,,,,,,,,,,,,,,,,,,,,,,,,,,,,,,,,,,,,,,,,,,,,,,,,,,,,,,,,,,
hitit yazılı kaya,38.6492067,34.2897928,,,,,,,,,,,,,,,,,,,,,,,,,,,,,,,,,,,,,,,,,,,,,,,,,,,,,,,,,,,,,,,,,,,,,,,,,,,,,,,,,,,,,,,,,,,,,,,,,,,,,,,,,,,,,,,,,,,,
تل سحاكي الاثري,33.082122,44.355241,,,,yes,,تل سحاكي,,,,,,,,,,,,,,,,,babylon,,,,,,,,,,,,,"Tall Saḩākī, تل سحاكي, Tall Sahaki, تل سحاكي","Iraq , جمهورية العراق",,,,,تل سحاكي,,,,,,,,,Tall Sahaki,,Tall Sahaki Archaeological,,,,,,,,,,Tall Sahaki,,,,,,,,,,,,,,,,,,,,,,,,,,,,,,,,,,,,,,,,,,,tell,,,,,,,,,,
تل الأبطخ,36.2145244,42.1622211,,,,,,تل الأبطخ,,,,,,,,,,,,,,,,,,,,,,,,,,,,,,"Tall al Abţakh, تل الابطخ, Tall al Abtakh, تل الابطخ","Iraq , جمهورية العراق",,,,,تل الأبطخ,تل الأبطخ,,,,,,,,Tall al Abtakh,,Tall al Abtakh,,,,,,,,,,Tall al Abtakh,,,,,,,,,,,,,,,,,,,,,,,,,,,,,,,,,,,,,,,,,,,,,,,,,,,,,
معبد الحضر,35.585556,42.7175,,,,,,معبد الحضر,,,,,,,,,,,,,,,,,,,,,,,,,,,,,,"Al Ḩaḑar, Mabad al Ḩaḑar, Mabad al Ḩaḑr, Temple of Hatra, Temple of Haţra, Al Hadar, Mabad al Hadar, Mabad al Hadr, Temple of Hatra, Temple of Hatra",,,,,,معبد الحضر,معبد الحضر,,,,,,,,Al Hadar,,Al Hadar,,,,,,,,,,Al Hadar,,,,,,,,,,,,,,,,,,,,,,,,,,,,,,,,,,,,,,,,,,,,,,,,,,,,,
آثار الحضر,35.5883189,42.7177273,,,,,,آثار الحضر,,,,,,,,,,,,,,,,,,,,,,,,,,,,,,"Āthār al Ḩaḑar, Athar al Hadar",,,,,,آثار الحضر,آثار الحضر,,,,,,,,Athar al Hadar,,Athar al Hadar,,,,,,,,,,Athar al Hadar,,,,,,,,,,,,,,,,,,,,,,,,,,,,,,,,,,,,,,,,,,,,,,,,,,,,,
Ain Dara temple,36.459628,36.8525669,,,en:Ain Dara temple,,,,,,,,,,,,,,,,,,,,,,,,,,,,,,,,,,,,,,,,,,,,,,,,,,,,,,,,,,,,,,,,,,,,,,,,,,,,,,,,,,,,Świątynia w Ain Dara,,,Тахун-Андара,,,,,,,,,,,,,,,,,,,,,,,,Q1807968,,
Asar Tepe,36.226679,32.4067651,,,,,,,,,,,,,,,,,,,,,,,,,,,,,,,,,,,,,,,,,,,,,,,,,,,,,,,,,,,,,,,,,,,,,,,,,,,,,,,,,,,,,,,,,,,,,,,,,,,,,,,,,,,,,,,,,,,,
Göçük Asari,36.1901299,32.4624156,,,,,,,,,,,,,,,,,,,,,,,,,,,,,,,,,,,,,,,,,,,,,,,,,,,,,,,,,,,,,,,,,,,,,,,,,,,,,,,,,,,,,,,,,,,,,,,,,,,,,,,,,,,,,,,,,,,,
בית המרחץ העתיק,32.7062078,35.3015556,,,he:בית המרחץ העתיק (נצרת),,الناصرة,,,,,,,,,,,,,,,,,,,,,,,,,,,,,,,,,,,,,الحمام القديم في الناصرة,,,,,,,,,,,The Ancient Bath House,,,,,,,,,,,,בית המרחץ העתיק,,,,,,,,,,,,,,,,,,,,,,,,,,,,,,,,,,,,,,,,,,,,http://www.nazarethbathhouse.org/,,,,,,,
Makronissos Tombs,34.9811402,33.9540083,,,,,,,,,,,,,,,,,,,,,,,,hellenistic_greece,,,,,,,,,,,,,,,,,,,,,,,,,,,,,,,,,,,,,,,,,,,,,,,,,,,,,,,,,,,,,,,,,,Скальные гробницы Макронисос,,,,Скельні гробниці Макронісос (Makronissos Tombs),,,,,,,,,,,,,,,,,,,,,,
Ilica Kale,36.4255051,32.3748301,,,,,,,,,,,,,,,,,,,,,,,,,,,,,,,,,,,,,,,,,,,,,,,,,,,,,,,,,,,,,,,,,,,,,,,,,,,,,,,,,,,,,,,,,,,,,,,,,,,,,,,,,,,,,,,,,,,,
Karacukur,36.4054055,32.397146,,,,,,,,,,,,,,,,,,,,,,,,,,,,,,,,,,,,,,,,,,,,,,,,,,,,,,,,,,,,,,,,,,,,,,,,,,,,,,,,,,,,,,,,,,,,,,,,,,,,,,,,,,,,,,,,,,,,
Sivaste,36.4279567,32.4107931,,,,,,,,,,,,,,,,,,,,,,,,,,,,,,,,,,,,,,,,,,,,,,,,,,,,,,,,,,,,,,,,,,,,,,,,,,,,,,,,,,,,,,,,,,,,,,,,,,,,,,,,,,,,,,,,,,,,
Kenetepe,36.38879,32.3686503,,,,,,,,,,,,,,,,,,,,,,,,,,,,,,,,,,,,,,,,,,,,,,,,,,,,,,,,,,,,,,,,,,,,,,,,,,,,,,,,,,,,,,,,,,,,,,,,,,,,,,,,,,,,,,,,,,,,
Gürçam Karatepe,36.2073093,32.530999,,,,,,,,,,,,,,,,,,,,,,,,,,,,,,,,,,,,,,,,,,,,,,,,,,,,,,,,,,,,,,,,,,,,,,,,,,,,,,,,,,,,,,,,,,,,,,,,,,,,,,,,,,,,,,,,,,,,
Gürçam Kale,36.2104949,32.4898432,,,,,,,,,,,,,,,,,,,,,,,,,,,,,,,,,,,,,,,,,,,,,,,,,,,,,,,,,,,,,,,,,,,,,,,,,,,,,,,,,,,,,,,,,,,,,,,,,,,,,,,,,,,,,,,,,,,,
Govan Asari,36.2236865,32.4571417,,,,,,,,,,,,,,,,,,,,,,,,,,,,,,,,,,,,,,,,,,,,,,,,,,,,,,,,,,,,,,,,,,,,,,,,,,,,,,,,,,,,,,,,,,,,,,,,,,,,,,,,,,,,,,,,,,,,
Tasli Seke,36.2155156,32.5245188,,,,,,,,,,,,,,,,,,,,,,,,,,,,,,,,,,,,,,,,,,,,,,,,,,,,,,,,,,,,,,,,,,,,,,,,,,,,,,,,,,,,,,,,,,,,,,,,,,,,,,,,,,,,,,,,,,,,
Kara Tepe,36.3289311,32.2536371,,,,,,,,,,,,,,,,,,,,,,,,,,,,,,,,,,,,,,,,,,,,,,,,,,,,,,,,,,,,,,,,,,,,,,,,,,,,,,,,,,,,,,,,,,,,,,,,,,,,,,,,,,,,,,,,,,,,
Kestros,36.235449,32.3304113,,,,,,,,,,,,,,,,,,,,,,,,,,,,,,,,,,,,,,,,,,,,,,,,,,,,,,,,,,,,,,,,,,,,,,,,,,,,,,,,,,,,,,,,,,,,,,,,,,,,,,,,,,,,,,,,,,,,
Delice Kiln Site,36.3006964,32.2650097,,,,,,,,,,,,,,,,,,,,,,,,,,,,,,,,,,,,,,,,,,,,,,,,,,,,,,,,,,,,,,,,,,,,,,,,,,,,,,,,,,,,,,,,,,,,,,,,,,,,,,,,,,,,,,,,,,,,
Iotape,36.3214109,32.234926,,,,,,,,,,,,,,,,,,,,,,,,,,,,,,,,,,,,,,,,,,,,,,,,,,,,,,,,,,,,,,,,,,,,,,,,,,,,,,,,,,,,,,,,,,,,,,,,,,,,,,,,,,,,,,,,,,,,
Halil Burnu,36.3091178,32.2487019,,,,,,,,,,,,,,,,,,,,,,,,,,,,,,,,,,,,,,,,,,,,,,,,,,,,,,,,,,,,,,,,,,,,,,,,,,,,,,,,,,,,,,,,,,,,,,,,,,,,,,,,,,,,,,,,,,,,
Kale Tepe,36.3222926,32.2732924,,,,,,,,,,,,,,,,,,,,,,,,,,,,,,,,,,,,,,,,,,,,,,,,,,,,,,,,,,,,,,,,,,,,,,,,,,,,,,,,,,,,,,,,,,,,,,,,,,,,,,,,,,,,,,,,,,,,
Frengez Kale,36.177212,32.5296686,,,,,,,,,,,,,,,,,,,,,,,,,,,,,,,,,,,,,,,,,,,,,,,,,,,,,,,,,,,,,,,,,,,,,,,,,,,,,,,,,,,,,,,,,,,,,,,,,,,,,,,,,,,,,,,,,,,,
Gökcebelen Kale,36.1560781,32.5199698,,,,,,,,,,,,,,,,,,,,,,,,,,,,,,,,,,,,,,,,,,,,,,,,,,,,,,,,,,,,,,,,,,,,,,,,,,,,,,,,,,,,,,,,,,,,,,,,,,,,,,,,,,,,,,,,,,,,
Tomak Asari,36.2159311,32.4338816,,,,,,,,,,,,,,,,,,,,,,,,,,,,,,,,,,,,,,,,,,,,,,,,,,,,,,,,,,,,,,,,,,,,,,,,,,,,,,,,,,,,,,,,,,,,,,,,,,,,,,,,,,,,,,,,,,,,
Bikciki Kiln Site,36.286705,32.2768114,,,,,,,,,,,,,,,,,,,,,,,,,,,,,,,,,,,,,,,,,,,,,,,,,,,,,,,,,,,,,,,,,,,,,,,,,,,,,,,,,,,,,,,,,,,,,,,,,,,,,,,,,,,,,,,,,,,,
Hisar Asari,36.186703,32.59284,,,,,,,,,,,,,,,,,,,,,,,,,,,,,,,,,,,,,,,,,,,,,,,,,,,,,,,,,,,,,,,,,,,,,,,,,,,,,,,,,,,,,,,,,,,,,,,,,,,,,,,,,,,,,,,,,,,,
Charadros,36.1085233,32.5700949,,,,,,,,,,,,,,,,,,,,,,,,,,,,,,,,,,,,,,,,,,,,,,,,,,,,,,,,,,,,,,,,,,,,,,,,,,,,,,,,,,,,,,,,,,,,,,,,,,,,,,,,,,,,,,,,,,,,
Bronze Age Perfume factory archaeological site,34.7439945,33.1787612,,,,,,,,,,,,,,,,,,,,,,,,,,,,,,,,,,,,,,,,,,,,,,,,,,,,,,,,,,,,,,,,,,,,,,,,,,,,,,,,,,,,,,,,,,,,,,,,,,,,,,,,,,,,,,,,,,,,
מצד נקרות,30.5752479,35.0116528,,,,,,,,,,,,,,,,,,,,,,,,,,https://upload.wikimedia.org/wikipedia/commons/e/eb/IHM_מצד_נקרות.jpeg,https://upload.wikimedia.org/wikipedia/commons/a/a7/IHM_מצד_נקרות_1.jpeg,https://upload.wikimedia.org/wikipedia/commons/2/28/IHM_מצד_נקרות_2.jpeg,https://upload.wikimedia.org/wikipedia/commons/f/f2/IHM_מצד_נקרות_3.jpeg,,,,,,,,,,,,,,,,,,,,,,,,Nekarot bastion,,,,,,,,,,,,מצד נקרות,,,,,,,,,,,,,,,,,,,,,,,,,,,,,,,,,,,,,,,,,,,,,,,,,,,
Garden Tomb,30.3204004,35.4454499,,,,,,,,,,,,,,,,,,,,,,,,,,,,,,,,,,,,,,,,,,,,,,,,,,,Gartentempel,,Garden Temple,,,,,,,,Templo del Jardín,,,,,,,,,,,,,,,,,,,,,,,,,,,,,,,,,,,,,,,,,,,,,,,,,,,,,,,
Pepuza,38.4067254,29.4476095,,,en:Pepuza,,,,,,,,,,,,,,,,,,,,,,,,,,,,,,,,,,,,,,,,,,,,,,,,Pepouza,Πέπουζα,,,,,,,,,,,,,,,,,,,,,,,,,,,,,,,,,,,,,,,,,,,,,,,,,,,,,,,,,,,,,,Q1293474,,
Painted Room,30.3310932,35.4382304,,,,,,,,,,,,,,,,,,,,,,,,,,,,,,,,,,,,,,,,,,,,,,,,,,,Bemalter Raum,,,,,,,,,,,,,,,,,,,,,,,,,,,,,,,,,,,,,,,,,,,,,,,,,,,,,,,,,,,,,,,,,
Kaya Mezarlari,36.247697,32.5222945,,,,,,,,,,,,,,,,,,,,,,,,,,,,,,,,,,,,,,,,,,,,,,,,,,,,,,,,,,,,,,,,,,,,,,,,,,,,,,,,,,,,,,,,,,,,,,,,,,,,,,,,,,,,,,,,,,,,
Sirichi Pit,37.0893005,43.4855706,,,,,,,,,,,,,,,,,,,,,,,,,,,,,,,,,,,,,,,,,,,,,,,,,,,,,,,,,,,,,,,,,,,,,,,,,,,,,,,,,,,,,,,,,,,,,,,,,,,,,,,,,,,,,,,,,,,,
خربة الذريح,30.9074412,35.70275,,,en:Khirbet ed-Dharih,,,,,,,,,,,,,,,,,,,,nabatean,,,,,,,,,,,,,,,,,,,خربة الذريح,,,,,,,,,,,Khirbet ed-Dharih,,,,,,,,,,,,,,,,,,,,,,,,,,,,,,,,,,,,,,,,,,,,,,,,,,,,,settlement,,,https://www.megalithic.co.uk/article.php?sid=27220,,,,,Q6401772,,
Atlit Yam,32.7108857,34.9341955,,,en:Atlit Yam,,,,,,,,,,,,,,,,,,,,,,,,,,,,,,,,,,,,,,,,,,,,,,,,Atlit Yam,,Atlit Yam,,,,,,,,,,,,הכפר הנאוליתי בעתלית-ים,,,,,,,,,,,,,,,,,,,,,,,,,,,,,,,,,,,,,,,,,,,,,,,,,Q2896085,,
Trapezopolis,37.8529736,28.9259762,,,de:Trapezopolis,,,,,,,,,,,,,,,,,,,,,,,,,,,,,,,,,,,,,,,,,,,,,,,,,Τραπεζόπολις,,,,,,,,,,,,,,,,,,,,,,,,,,,,,,,,,,,,,,,,,,,,,,,,,,,,,,,,http://www.academia.edu/4247140/Simsek_C._Trapezopolis_Nekropolu_I_Arkeoloji_ve_Sanat_Dergisi_109-110_2002_3-17,,,,,,Q2449968,,
Kissonerga-Skalia,34.8225461,32.3966814,,,,,,,,,,,,,,,,,,,,,,,,,,,,,,,,,,,,,,,,,,,,,,,,,,,,,,,,,,,,,,,,,,,,,,,,,,,,,,,,,,,,,,,,,,,,,,,,,,,,,,,,,,,,,,,,,,,,
أطلال قصر هيرود,31.8518535,35.4362488,,,,,,,,,,,,,,,,,,,,,,,,,,,,,,,,,,,,,,,,,,أطلال قصر هيرود,,,,,,,,,,,Ruins of Herod's Palace,,,,,,,,,,,,ארמון הרודיאני,,,,,,,,Rovine del Palazzo di Erode,,,,,,,,,,,,,,,,,,,,,,,,,,,,,,,,,,,,,,,,,,,
עין תות,31.7863792,35.1715666,,,,,,,,,,,,,,,,,,,,,,,,,,,,,,,,,,,,,,,,,,,,,,,,,,,,,Ein Toot,,,,,,,,,,,,עין תות,,,,,,,,,,,,,,,,,,,,,,,,,,,,,,,,,,,,,,,,,,,,,,,,,,,
Amathus necropolis,34.7133288,33.1489887,,,,,,,,,,,,,,,,,,,,,,,,,,,,,,,,,,,,,,,,,,,,,,,,,,,,,,,,,,,,,,,,,,,,,,,,,,,,,,,,,,,,,,,,,,,,,,,,,,,,,,,,,,,,,,,,,,,,
Ayios Philon Roman harbor,35.6347284,34.3979381,,,,,,,,,,,,,,,,,,,,,,,,,,,,,,,,,,,,,,,,,,,,,,,,,,,,,,,,,,,,,,,,,,,,,,,,,,,,,,,,,,,,,,,,,,,,,,,,,,,,,,,,,,,,,,,,,,,,
Mindos Kalesi,37.3809535,34.2647577,,,,,,Kaleimindos;Kayasaray Kalesi,,,,,,,,,,,,,,,,,,,,,,,,,,,,,,,,,,,,,,,,,,,,,,,,,,,,,,,,,,,,,,,,,,,,,,,,,,,,,,,,,,,,,,,,,,,,,,,,,,,,,,,,,,,,,,
Tont Kalesi,37.4648494,34.1684631,,,,,,,,,,,,,,,,,,,,,,,,,,,,,,,,,,,,,,,,,,,,,,,,,,,,,,,,,,,,,,,,,,,,,,,,,,,,,,,,,,,,,,,,,,,,,,,,,,,,,,,,,,,,,,,,,,,,
ATATÜRK ANIT,37.5166733,34.0465432,,,,,,,,,,,,,,,,,,,,,,,,,,,,,,,,,,,,,,,,,,,,,,,,,,,,,,,,,,,,,,,,,,,,,,,,,,,,,,,,,,,,,,,,,,,,,,,,,,,,,,,,,,,,,,,,,,,,
Tel A-Nasbe,31.8857804,35.2164718,,,en:Tell en-Nasbeh,,,,,,,,,,,,,,,,,,,,,,,,,,,,,,,,,,,,,,,,,,,,,,,,,,Tel A-Nasbe,Tel Mitzpeh,Tel Mizpeh,,,,,,,,,,תל מצפה,,,,,,,,,,,,,,,,,,,,,,,,,,,,,,,,,,,,,,,,,,,,,,,,,Q7697543,,
Leontopolis (Heliopolis),30.2883009,31.360463,,,en:Leontopolis (Heliopolis),,,,,,,,,,,,,,,,,,,,,,,,,,,,,,,,,,,,,,,,,,,,,,,,,,,,,,,,,,,,,,,,,,,,,,,,,,,,,,,,,,,,,,,,,,,,,,,,,,,,,,,,,,,,,,,Q2372919,,
Mareia,30.9951309,29.6566185,,,,,,,,,,,,,,,,,,,,,,,,,,,,,,,,,,,,,,,,,,,,,,,,,,,,,,,,,,,,,,,,,,,,,,,,,,,,,,,,,,,,,,,,,,,,,,,,,,,,,,,,,,,,,,,,,,Q1894495,,
Xois,31.0896344,30.9507706,,,,,,,,,,,,,,,,,,,,,,,,,,,,,,,,,,,,,,,,,,,,,,,,,,,,,,,,,,,,,,,,,,,,,,,,,,,,,,,,,,,,,,,,,,,,,,,,,,,,,,,,,,,,,,,,,,Q1068140,,
תל אל-פול,31.8234804,35.2312011,,,ar:قرية جبعة,,,,,,,,,,,,,,,,,,838,,,,,,,,,,,,,,,,,,,,,تل الفول,,,,,,,,,,,Tall Al-Ful,,Tell El-Ful,Gibeah,Givah,,,,,,Tell al Ful,,תל אל-פול,,גבעה המקראית,גבעת שאול המקראית,,,,,,,,,기브아,,,,,,,,,,,,,,,,,,,,,,,,,,,,,,,,,,,,,Q1021662,,
الكنيسة البيزنطية,31.29381,34.9235142,,,,,,,,,,,,,,,,,,,,,410.0,,,,,,,,,,,,,,,,,,,,,الكنيسة البيزنطية,,,,,,,,,,,,,,,,,,,,,,,כנסיה ביזנטית,,,,,,,,,,,,,,,,,,,,,,,,,,,,,,,,,,,,,,,,,,,,,,,,,,,
חורבת בית לויה,31.5639305,34.928463,,,he:חורבת בית לויה,,,,,,,,,,,,"חורבת בית לוֹיָה היא אתר ארכאולוגי בשרידי ישוב קדום בראש גבעה בדרום השפלה, כ-3.5 ק""מ מצפון למושב אמציה.",,,"חורבת בית לוֹיָה היא אתר ארכאולוגי בשרידי ישוב קדום בראש גבעה בדרום השפלה, כ-3.5 ק""מ מצפון למושב אמציה.",,,,,,,,https://upload.wikimedia.org/wikipedia/commons/5/5c/Israel_Hiking_Map_%D7%97%D7%95%D7%A8%D7%91%D7%AA_%D7%91%D7%99%D7%AA_%D7%9C%D7%95%D7%99%D7%94_1.jpeg,,,,,,,,,,,,,,,,,,,,,,,,,,,Beit Loya ruins,,,,,,,,,,Horbat Beit Levya,,חורבת בית לויה,,,,,,,,,,,,,,,,,,,,,,,,,,,,,,,,,,,,,,,,,,,,,,,,,Q1740641,,
כנסית בית לויה,31.5638561,34.9267159,,,,,,,,,,,,,,,כנסיה ביזנטית ממערב לראש התל. באולם המרכזי של הכנסיה פסיפס גדול ומרשים. בצידי האולם שתי שורות של בסיסי עמודים ועבר להם פסיפסים נוספים.,,,כנסיה ביזנטית ממערב לראש התל. באולם המרכזי של הכנסיה פסיפס גדול ומרשים. בצידי האולם שתי שורות של בסיסי עמודים ועבר להם פסיפסים נוספים.,,,407.0,,,,,https://upload.wikimedia.org/wikipedia/commons/b/b3/Israel_Hiking_Map_%D7%9B%D7%A0%D7%A1%D7%99%D7%94_%D7%91%D7%99%D7%96%D7%A0%D7%98%D7%99%D7%AA.jpeg,https://upload.wikimedia.org/wikipedia/commons/9/96/Israel_Hiking_Map_%D7%9B%D7%A0%D7%A1%D7%99%D7%94_%D7%91%D7%99%D7%96%D7%A0%D7%98%D7%99%D7%AA_1.jpeg,,,,,,,,,,,,,,,,,,,,,,,,,,Byzantine Church,,,,,,,,,,,,כנסית בית לויה,,,,,,,,,,,,,,,,,,,,,,,,,,,,,,,,,,,,,,,,,,,,,,,,,,,
שער שלמה,31.8594685,34.9217949,,,,,,,,,,,,,,,עתיקות מרשימות משער הכניסה הקדום לעיר,,,עתיקות מרשימות משער הכניסה הקדום לעיר,,,,,,,,https://upload.wikimedia.org/wikipedia/commons/b/bf/Israel_Hiking_Map_%D7%A9%D7%A2%D7%A8_%D7%A9%D7%9C%D7%9E%D7%94.jpeg,https://upload.wikimedia.org/wikipedia/commons/4/46/Israel_Hiking_Map_שער_שלמה_1.jpeg,,,,,,,,,,,,,,,,,,,,,,,,,,Solomon's gate,,,,,,,,,,,,שער שלמה,,,,,,,,,,,,,,,,,,,,,,,,,,,,,,,,,,,,,,,,,,,,,,,,,,,
נקרופוליס,31.77761,35.2422118,,,,,,,,,,,,,,,,In diesem Gebäude mit offener Front befinden sich Ossuare.,In this building with an open front are ossuaries.,,,,,,,,,,,,,,,,,,,,,,,,,,,,,,,,,,,,Necropolis,,,,,,,,,,,,נקרופוליס,,,,,Nekropolisz,,,,,,,,,,,,,,,,,,,Necropolă,Некрополь,,,,,,,,,,,,,,,,necropolis,,,,,,,,,,
Çobaktepe,37.365623,36.929779,,,,,,,,,,,,,,,,,,,,,,,,,,,,,,,,,,,,,,,,mound,,,,,,,,,,,,,,,,,,,,,,,,,,,,,,,,,,,,,,,,,,,,,,,,,,,,,,,,,,,,,,,,,,,,,,,,,,,,
Karakız Taş Ocağı ve Heykel Atölyesi,39.8132254,35.3578341,,,de:Steinbruch von Karakız,,,,,,,,,,,,,,,,,,,,,,,,,,,,,,,,,,,,,,,,,,,,,,,,,,,,,,,,,,,,,,,,,,,,,,,,,,,,,,,,,,,,,,,,,,,,,,,,,,,,,,,,,,,,,,,Q15849063,,
Sidyma,36.4091721,29.1857295,,,,,,,,,,,,,,,,,,,,,,,,,,,,,,,,,,,,,,,,,,,,,,,,,,,,,,,,,,,,,,,,,,,,,,,,,,,,,,,,,,,,,,,,,,,,,,,,,,,,,,,,,,,,,,,,,,,,
بركة قديمة,31.837244,35.5539046,,,,,,,,,,,,,,,,,,,,,,,,,,,,,,,,,,,,,,,,,,بركة قديمة,,,,,,,,,,,Ancient Pool,,,,,,,,,,,,,,,,,,,,,,,,,,,,,,,,,,,,,,,,,,,,,,,,,,,,,,,,,,,,,,,
موقع المعمودية,31.8381408,35.5668693,,,,,,,,,,,,,,,,,,,,,,,,,,,,,,,,,,,,,,,,,,موقع المعمودية,,,,,,,,,,,Bethany Saphsaphas,,,,,,,,,,,,,,,,,,,,,,,,,,,,,,,,,,,,,,,,,,,,,,,,,,,,,,,,,,,,,,,
خلايا الكهف,31.8390912,35.5515835,,,,,,,,,,,,,,,,,,,,,,,,,,,,,,,,,,,,,,,,,,خلايا الكهف,,,,,,,,,,,Cave Cells,,,,,,,,,,,,,,,,,,,,,,,,,,,,,,,,,,,,,,,,,,,,,,,,,,,,,,,,,,,,,,,
منطقة كنيسة يوحنا المعمدان,31.837358,35.5500896,,,,,,,,,,,,,,,,,,,,,,,,,,,,,,,,,,,,,,,,,,منطقة كنيسة يوحنا المعمدان,,,,,,,,,Taufstätte Bethanien jenseits des Jordans,,Bethany-beyond-the-Jordan Baptism Site,,,,,,,,,,,,,,,,,,,,,,,,,,,,,,,,,,,,,,,,,,,,,,,,,,,,,,,,,,,,,,,
ربيع يوحنا المعمدان,31.8374498,35.5531222,,,,,,,,,,,,,,,,,,,,,,,,,,,,,,,,,,,,,,,,,,ربيع يوحنا المعمدان,,,,,,,,,,,John the Baptist Spring,,,,,,,,,,,,,,,,,,,,,,,,,,,,,,,,,,,,,,,,,,,,,,,,,,,,,,,,,,,,,,,
القديسة مريم المصرية,31.8388079,35.5491707,,,,,,,,,,,,,,,,,,,,,,,,,,,,,,,,,,,,,,,,,,القديسة مريم المصرية,,,,,,,,,,,Saint Mary the Egyptian,,,,,,,,,,,,,,,,,,,,,,,,,,,,,,,,,,,,,,,,,,,,,,,,,,,,,,,,,,,,,,,
محطة الحجاج,31.8376616,35.5552093,,,,,,,,,,,,,,,,,,,,,,,,,,,,,,,,,,,,,,,,,,محطة الحجاج,,,,,,,,,,,The Pilgrims Station,,,,,,,,,,,,,,,,,,,,,,,,,,,,,,,,,,,,,,,,,,,,,,,,,,,,,,,,,,,,,,,
מקדש יטורי,33.2711034,35.7224134,,,,,,,,,,,,,,,,,,,,,,,,,,,,,,,,,,,,,,,,,,,,,,,,,,,,,,,,,,,,,,,,,מקדש יטורי,,,,,,,,,,,,,,,,,,,,,,,,,,,,,,,,,,,,,,,,,,,,,,,,,,,
אום אל קנטיר,32.8499641,35.7377548,,,en:Umm el Kanatir,,,,,,,,,,,,"אֻם אל-קַנַאטִר (בערבית: ام القناطر) שמשמעותו אם הקשתות, על שם שלוש הקשתות מעל המעיין (שרק אחת מהן נותרה שלמה) הוא כפר קדום על הגדה המזרחית של נחל סמך, כשני ק""מ מדרום-מערב ליישוב נטור ברמת הגולן.",,,"אֻם אל-קַנַאטִר (בערבית: ام القناطر) שמשמעותו אם הקשתות, על שם שלוש הקשתות מעל המעיין (שרק אחת מהן נותרה שלמה) הוא כפר קדום על הגדה המזרחית של נחל סמך, כשני ק""מ מדרום-מערב ליישוב נטור ברמת הגולן.",,,,,,,,https://upload.wikimedia.org/wikipedia/he/9/90/UMELKANTIR01.jpg,https://upload.wikimedia.org/wikipedia/commons/4/45/Israel_Hiking_Map_%D7%90%D7%95%D7%9D_%D7%90%D7%9C-%D7%A7%D7%A0%D7%90%D7%98%D7%A8_2.jpeg,https://upload.wikimedia.org/wikipedia/commons/2/22/Israel_Hiking_Map_%D7%90%D7%95%D7%9D_%D7%90%D7%9C-%D7%A7%D7%A0%D7%90%D7%98%D7%A8_1.jpeg,https://upload.wikimedia.org/wikipedia/commons/d/d0/Israel_Hiking_Map_%D7%90%D7%95%D7%9D_%D7%90%D7%9C-%D7%A7%D7%A0%D7%90%D7%98%D7%A8.jpeg,https://upload.wikimedia.org/wikipedia/commons/9/90/Israel_Hiking_Map_%D7%90%D7%95%D7%9D_%D7%90%D7%9C-%D7%A7%D7%A0%D7%90%D7%98%D7%A8_4.jpeg,https://upload.wikimedia.org/wikipedia/commons/3/38/Israel_Hiking_Map_%D7%90%D7%95%D7%9D_%D7%90%D7%9C-%D7%A7%D7%A0%D7%90%D7%98%D7%A8_3.jpeg,,,,,,,,,,,,,,,,,,,,,,Umm el Kanatir,,,,,,,,,,,,אום אל-קנאטר,,,,,,,,,,,,,,,,,,,,,,,,,,,,,,,,,,,,,,,,,,,,,,,,,,,
אמת המים גזר רמלה,31.8861828,34.8799896,,,,,,,,,,,,,,,,,,,,,,,,,,https://upload.wikimedia.org/wikipedia/commons/1/17/Israel_Hiking_Map_אמת_המים_גזר_רמלה.jpeg,,,,,,,,,,,,,,,,,,,,,,,,,,,Gezer-Ramla Aqueduct,,,,,,,,,,,,אמת המים גזר רמלה,,,,,,,,,,,,,,,,,,,,,,,,,,,,,,,,,,,,,,,,,,,,,,,,,,,
קברי בית ראשון,31.774959,35.2277459,,,,,,,,,,,,,,,,,,,,,,,,,,,,,,,,,,,,,,,,,,,,,,,,,,,,,Tombs,,,,,,,,,,,,קברי בית ראשון,,,,,,,,,,,,,,,,,,,,,,Pierwsze groby,,,,,,,,,,,,,,,,,,,,,,,,,,,,,
קברי בית הורדוס,31.7733015,35.2237129,,,,,,,,,,,,,,,,,,,,,,,,,,,,,,,,,,,,,,,,,,,,,,,,,,,,,Herods Tombs,,,,,,,,,,,,קברי בית הורדוס,,,,,,,,,,,,,,,,,,,,,,grobowce rodzinne Heroda,,,,,,,,,,,,,,,,,,,,,,,,,,,,,
עקבות של דינוזאור,31.7818671,35.1621372,,,,,,,,,,,,,,,,,,,,,,,,,,,,,,,,,,,,,,,,,,,,,,,,,,,,,,,,,,,,,,,,,עקבות של דינוזאור,,,,,,,,,,,,,,,,,,,,,,,,,,,,,,,,,,,,,,,,,,,,,,,,,,,
מנזר הצבאים,31.8204728,35.2520675,,,,,,,,,,,,,,,,,,,,,,,,,,,,,,,,,,,,,,,,,,,,,,,,,,,,,,,,,,,,,,,,,,,,,,,,,,,,,,,,,,,,,,,,,,,,,,,,,,,,,,,,,,,,,,,,,,,,
Roman street,31.777689,35.2293313,,,,,,,,,,,,,,,,,,,,,,,,,,,,,,,,,,,,,,,,,,,,,,,,,,,,,,,,,,,,,,,,,,,,,,,,,,,,,,,,,,,,,,,,,,,,,,,,,,,,,,,,,,,,,,,,,,,,
כתובת תחום גזר מס. 5,31.8421116,34.9271164,,,,,,,,,,,,,,,,,,,,,,,,,,https://upload.wikimedia.org/wikipedia/commons/b/b4/Israel_Hiking_Map_%D7%9B%D7%AA%D7%95%D7%91%D7%AA_%D7%AA%D7%97%D7%95%D7%9D_%D7%92%D7%96%D7%A8.jpeg,https://upload.wikimedia.org/wikipedia/commons/9/96/Israel_Hiking_Map_%D7%9B%D7%AA%D7%95%D7%91%D7%AA_%D7%AA%D7%97%D7%95%D7%9D_%D7%92%D7%96%D7%A8_1.jpeg,,,,,,,,,,,,,,,,,,,,,,,,,,,,,,,,,,,,,,כתובת תחום גזר מס. 5,,,,,,,,,,,,,,,,,,,,,,,,,,,,,,,,,,,,,,,,,,,,,,,,,,,
Chain Gate,31.7772753,35.2343091,,,,,,,,,,,,,,,,,,,,,,,,,,,,,,,,,,,,,,,,,,,,,,,,,,,,,,,,,,,,,,,,,,,,,,,,,,,,,,,,,,,,,,,,,,,,,,,,,,,,,,,,,,,,,,,,,,,,
Arslankaya,39.1158593,30.4299959,,,,,,,,,,,,,,,,,,,,,,,,,,,,,,,,,,,,,,,,,,,,,,,,,,,,,,,,,,,,,,,,,,,,,,,,,,,,,,,,,,,,,,,,,,,,,,,,,,,,,,,,,,,,,,,,,,,,
Antik Yol,36.9176733,34.8928477,,,,,,,,,,,,,,,,,,,,,,,,,,,,,,,,,,,,,,,,,,,,,,,,,,,,,Ancient Road,,,,,,,,,,,,,,,,,,,,,,,,,,,,,,,,,,,,,,,,,,,,,,,,,,,,,,,,,,,,,,,
Roman Baths,36.9181355,34.8976529,,,,,,,,,,,,,,,,,,,,,,,,,,,,,,,,,,,,,,,,,,,,,,,,,,,,,,,,,,,,,,,,,,,,,,,,,,,,,,,,,,,,,,,,,,,,,,,,,,,,,,,,,,,,,,,,,,,,
Al Shibli Shrine,31.5259455,35.106474,,,,,,,,,,,,,,,,,,,,,,,,,,,,,,,,,,,,,,,,,,مقام الشبلي,,,,,,,,,,,Al Shibli Shrine,,,,,,,,,,,,,,,,,,,,,,,,,,,,,,,,,,,,,,,,,,,,,,,,,,,,,,,,,,,,,,,
معصرة النتشة,31.5258037,35.1074236,,,,,,,,,,,,,,,,,,,,,,,,,,,,,,,,,,,,,,,,,,An Natsha Olive Press,,,,,,,,,,,Olive presser,,,,,,,,,,,,,,,,,,,,,,,,,,,,,,,,,,,,,,,,,,,,,,,,,,,,,,,,,,,,,,,
סביל,32.0533637,34.75801,,,,,,,,,,,,,,,,,,,,,,,,,,,,,,,,,,,,,,,,,,,,,,,,,,,,,,,,,,,,,,,,,סביל,,,,,,,,,,,,,,,,,,,,,,,,,,,,,,,,,,,,,,,,,,,,,,,,,,,
בית הכנסת נשוט,33.0130319,35.6920206,,,,,,,,,,,,,,,,,,,,,,,,,,,,,,,,,,,,,,,,,,,,,,,,,,,,,,,,,,,,,,,,,בית הכנסת נשוט,,,,,,,,,,,,,,,,,,,,,,,,,,,,,,,,,,,,,,,,,,,,,,,,,,,
תל שילה,32.0563774,35.2898293,,,,,,,,,,,,,,,,,,,,,,,,,,,,,,,,,,,,,,,,,,,,,,,,,,,,,Tel Shiloh,Shiloh,,,,,,,,,,,תל שילה,,,,,,,,,,,,,,,,,,,,,,,,,,,,,,,,,,,,,,,,,,,,https://www.a-shiloh.co.il/,,,,,,,
גבעת אוגר,31.3338641,34.8886877,,,,,,,,,,,,,,,,,,,,,427,,,,,,,,,,,,,,,,,,,,,,,,,,,,,,,,,,,,,,,,,,,,גבעת אוגר,,,,,,,,,,,,,,,,,,,,,,,,,,,,,,,,,,,,,,,,,,,,,,,,,,,
Temple of Zeus,35.1766157,33.8996273,,,,,,,,,,,,,,,,,,,,,,,,,,,,,,,,,,,,,,,,,,,,,,,,,,,,,,,,,,,,,,,,,,,,,,,,,,,,,,,,,,,,,,,,,,,,,,,,,,,,,,,,,,,,,,,,,,,,
ساربتا/مكرا كومه,33.4642272,35.2951359,,,,,,,,,,,,,,,,,,,,,,,,,,,,,,,,,,,,,,,,,,ساربتا/مكرا كومه,,,,,,,,,,,Sarepta/Makra Kome,,,,,,,,,,,,,,,,,,,,,,,,,,,,,,,,,,,,,,,,,,,,,,,,,,,,,,,,,,,,,,,
Burqush,33.4662035,35.9888722,,,en:Burqush,,,,,,,,,,,,,,,,,,,,,,,,,,,,,,,,,,,,,,,,,,,,,,,,,,Burqush,,,,,,,,,,,,,,,,,,,,,,,,,,,,,,,,,,,,,,,,,,,,,,,,,,,,,,,,,,,,,Q5000303,,
Karaburun Höyük,39.7101037,35.0799922,,,,,,,,,,,,,,,,,,,,,,,,,,,,,,,,,,,,,,,,mound,,,,,,,,,,,,,,,,,,,,,,,,,,,,,,,,,,,,,,,,,,,,,,,,,,,,,,,,,,,,,,,,,,,,,,,,,,,,
תל פרור,32.6287866,35.1033155,,,,,,,,,,,,,,,,,,,,,,,,,,,,,,,,,,,,,,,,,,,,,,,,,,,,,Tel Faror,,,,,,,,,,,,תל פרור,,,,,,,,,,,,,,,,,,,,,,,,,,,,,,,,,,,,,,,,,,,,,,,,,,,
Arezastis monument,39.2175697,30.7093153,,,,,,,,,,,,,,,,,,,,,,,,,,,,,,,,,,,,,,,,,,,,,,,,,,,,,,,,,,,,,,,,,,,,,,,,,,,,,,,,,,,,,,,,,,,,,,,,,,,,,,,,,,,,,,,,,,,,
Tell Abu Marya,36.4299785,42.5972406,,,,,,,,,,,,,,,,,,,,,,,,,,,,,,,,,,,,,,,,,,,,,,,,,,,,,,,,,,,,,,,,,,,,,,,,,,,,,,,,,,,,,,,,,,,,,,,,,,,,,,,,,,,,,,,,,,,,
